"","Year","Month","Day","Hour","Minute","Department","Division","Case_Type","Hundred_Block","Street_Name","Local_Area","h_block","full_address","lat","lon","cid","lat_offset","lon_offset"
"1",2014,1,1,7,21,"CSG - Licenses","Animal Control","Dead Animal Pickup Case","Intersection","E 64TH AV and PRINCE ALBERT ST","Sunset","Intersection"," E 64TH AV and PRINCE ALBERT ST, Vancouver, BC, Canada",49.21203,-123.08818,5,49.2123630793486,-123.087972932384
"2",2014,1,1,7,45,"ENG - Solid Waste","Sanitation","Missed Garbage Pickup","22##","SW MARINE DRIVE","Kerrisdale","2200","2200 SW MARINE DRIVE, Vancouver, BC, Canada",49.2196388,-123.158754,3,49.2201218468199,-123.158317892009
"3",2014,1,1,9,27,"ENG - Solid Waste","Sanitation","Abandoned Garbage Pickup - City Property & Parks","10##","W 12TH AV","Fairview","1000","1000 W 12TH AV, Vancouver, BC, Canada",49.2604551,-123.1269001,3,49.2609330766287,-123.126477024805
"4",2014,1,1,10,6,"ENG - Solid Waste","Sanitation","Missed Garbage Pickup","27##","W 16TH AV","Arbutus Ridge","2700","2700 W 16TH AV, Vancouver, BC, Canada",49.2574158,-123.165901,3,49.2577161521889,-123.165694830758
"5",2014,1,1,10,15,"PRB - Administration","General Park Board Information","PRB_Park Ranger SR","11##","W CORDOVA ST","Downtown","1100","1100 W CORDOVA ST, Vancouver, BC, Canada",49.2882876,-123.119279,0,49.2886835848809,-123.118948454953
"6",2014,1,1,10,17,"ENG - Streets","Traffic and Electrical Operations","Sign - Repair","8600"," - 8699 GRANVILLE ST","Marpole","8600","8600  - 8699 GRANVILLE ST, Vancouver, BC, Canada",49.2084331,-123.1403951,0,49.2085983702298,-123.140129587656
"7",2014,1,1,10,20,"ENG - Solid Waste","Sanitation","Missed Garbage Pickup","32##","GRANVILLE ST","Shaughnessy","3200","3200 GRANVILLE ST, Vancouver, BC, Canada",49.2565085,-123.1386336,3,49.2566689698113,-123.138329829814
"8",2014,1,1,10,45,"CSG - Licenses","Animal Control","Animal Control General Inquiry Case","10##","E 14TH AV","Mount Pleasant","1000","1000 E 14TH AV, Vancouver, BC, Canada",49.2577249,-123.0831601,5,49.2581140732696,-123.082852667477
"9",2014,1,1,10,51,"ENG - Solid Waste","Sanitation","Missed Garbage Pickup","69##","BALMORAL ST","Victoria-Fraserview","6900","6900 BALMORAL ST, Vancouver, BC, Canada",49.2216868,-123.0681837,3,49.2220315646936,-123.06807202951
"10",2014,1,1,11,21,"CSG - Licenses","Animal Control","Lost Pets Case","22##","E BROADWAY","Grandview-Woodland","2200","2200 E BROADWAY, Vancouver, BC, Canada",49.2621051,-123.0597313,5,49.2626004066585,-123.059371615687
"11",2014,1,1,12,3,"ENG - Solid Waste","Sanitation","Abandoned Garbage Pickup - City Property & Parks","32##","SCHOOL AV","Killarney","3200","3200 SCHOOL AV, Vancouver, BC, Canada",49.2327124,-123.0370101,3,49.2331024841354,-123.036897107516
"12",2014,1,1,12,4,"ENG - Solid Waste","Sanitation","Abandoned Garbage Pickup - City Property & Parks","32##","SCHOOL AV","Killarney","3200","3200 SCHOOL AV, Vancouver, BC, Canada",49.2327124,-123.0370101,3,49.2331686022069,-123.036743218187
"13",2014,1,1,12,42,"ENG - Transportation","Neighbourhood Parking and Transportation","Residential Parking Requests","5##","E 8TH AV","Mount Pleasant","500","500 E 8TH AV, Vancouver, BC, Canada",49.2633749,-123.0927597,2,49.2636208364237,-123.092516021879
"14",2014,1,1,12,45,"ENG - Solid Waste","Sanitation","Missed Yard Trimmings and Food Scraps Pickup","28##","HIGHBURY ST","West Point Grey","2800","2800 HIGHBURY ST, Vancouver, BC, Canada",49.26155,-123.1877651,3,49.2617274762085,-123.18740041671
"15",2014,1,1,12,47,"ENG - Solid Waste","Sanitation","Abandoned Garbage Pickup - City Property & Parks","18##","ALBERNI ST","West End","1800","1800 ALBERNI ST, Vancouver, BC, Canada",49.2921561,-123.1346113,3,49.2923320701448,-123.134285149756
"16",2014,1,1,12,48,"ENG - Transportation","Traffic and Data Management","Traffic & Pedestrian Signal - New","Intersection","CAROLINA ST and E BROADWAY","Mount Pleasant","Intersection"," CAROLINA ST and E BROADWAY, Vancouver, BC, Canada",49.26247,-123.09105,2,49.2628002383892,-123.090594746784
"17",2014,1,1,12,57,"ENG - Solid Waste","Sanitation","Abandoned Garbage Pickup - City Property & Parks","400"," - 499 WINDERMERE ST","Hastings-Sunrise","400","400  - 499 WINDERMERE ST, Vancouver, BC, Canada",49.28111,-123.0359651,3,49.2814783609069,-123.035480521445
"18",2014,1,1,13,3,"ENG - Solid Waste","Sanitation","Missed Yard Trimmings and Food Scraps Pickup","41##","W 13TH AV","West Point Grey","4100","4100 W 13TH AV, Vancouver, BC, Canada",49.2607751,-123.1972317,3,49.2611005617904,-123.196786789357
"19",2014,1,1,13,8,"ENG - Solid Waste","Sanitation","Missed Garbage Pickup","76##","CAMBIE ST","Marpole","7600","7600 CAMBIE ST, Vancouver, BC, Canada",49.2157913,-123.1165742,3,49.2160154649685,-123.116455193874
"20",2014,1,1,13,33,"ENG - Transportation","Street Activities - Integrated Graffiti Management","Graffiti Removal - City Property","5##","HOWE ST","Downtown","500","500 HOWE ST, Vancouver, BC, Canada",49.28508,-123.11596,1,49.2854664976685,-123.115852406573
"21",2014,1,1,13,43,"ENG - Solid Waste","Sanitation","Abandoned Garbage Pickup - City Property & Parks","13##","W 55TH AV","Oakridge","1300","1300 W 55TH AV, Vancouver, BC, Canada",49.2202951,-123.1352919,3,49.2205499042845,-123.13490012161
"22",2014,1,1,14,7,"ENG - Solid Waste","Sanitation","Poster/Sign Removal Request","7##","W PENDER ST","Downtown","700","700 W PENDER ST, Vancouver, BC, Canada",49.2848,-123.11562,0,49.2852643235091,-123.115279456679
"23",2014,1,1,14,10,"ENG - Transportation","Street Activities - Streets Furniture","Street Furniture Repair and Maintenance Request","5##","GRANVILLE ST","Downtown","500","500 GRANVILLE ST, Vancouver, BC, Canada",49.2843,-123.11484,2,49.2844471570322,-123.114346916743
"24",2014,1,1,14,16,"ENG - Solid Waste","Sanitation","Poster/Sign Removal Request","7##","DUNSMUIR ST","Downtown","700","700 DUNSMUIR ST, Vancouver, BC, Canada",49.28373,-123.11671,0,49.2842227954403,-123.116348264698
"25",2014,1,1,14,20,"CSG - Licenses","Animal Control","Lost Pets Case","30##","E 18TH AV","Renfrew-Collingwood","3000","3000 E 18TH AV, Vancouver, BC, Canada",49.2538351,-123.0413393,5,49.2542434111957,-123.040950445173
"26",2014,1,1,14,43,"ENG - Solid Waste","Sanitation","Abandoned Garbage Pickup - City Property & Parks","9##","W BROADWAY","Fairview","900","900 W BROADWAY, Vancouver, BC, Canada",49.2632551,-123.1244116,3,49.2637365778455,-123.124254837221
"27",2014,1,1,14,44,"ENG - Water & Sewer","Water Operations","Water Leaks/Breaks","##","SW MARINE DRIVE","Marpole","00","00 SW MARINE DRIVE, Vancouver, BC, Canada",49.23251,-123.19049,4,49.2326830817494,-123.190061850471
"28",2014,1,1,14,48,"ENG - Solid Waste","Sanitation","Street Cleaning & Debris Pickup","1300"," - 1399 BURRARD ST","Downtown","1300","1300  - 1399 BURRARD ST, Vancouver, BC, Canada",49.2777733,-123.1308225,2,49.2781657083329,-123.130557578936
"29",2014,1,1,14,59,"ENG - Streets","Streets Design - P & D - Accessibility","Wheelchair Curb/Ramp Request","Intersection","CORNWALL AV and LARCH ST","Kitsilano","Intersection"," CORNWALL AV and LARCH ST, Vancouver, BC, Canada",49.2727,-123.16199,0,49.2731704807064,-123.161669901353
"30",2014,1,1,15,5,"ENG - Solid Waste","Sanitation","Recycling Bag Request","12##","E 13TH AV","Mount Pleasant","1200","1200 E 13TH AV, Vancouver, BC, Canada",49.258619,-123.079412,3,49.2588825482337,-123.079285098634
"31",2014,1,1,15,14,"ENG - Solid Waste","Sanitation","Missed Garbage Pickup","30##","E 3RD AV","Hastings-Sunrise","3000","3000 E 3RD AV, Vancouver, BC, Canada",49.2674548,-123.0412385,3,49.267802062599,-123.040931858278
"32",2014,1,1,15,17,"CSG - Licenses","Animal Control","Animal Complaint - Non-Emergency Case","Intersection","E 27TH AV and ONTARIO ST","Riley Park","Intersection"," E 27TH AV and ONTARIO ST, Vancouver, BC, Canada",49.24731,-123.10504,5,49.247612885006,-123.104805152063
"33",2014,1,1,16,24,"ENG - Transportation","Traffic and Data Management","Traffic & Pedestrian Signal - New","36##","SE MARINE DRIVE","Killarney","3600","3600 SE MARINE DRIVE, Vancouver, BC, Canada",49.2078855,-123.0255759,2,49.208368322505,-123.025405497384
"34",2014,1,1,16,52,"ENG - Water & Sewer","Water Operations","Water Leaks/Breaks","65##","CYPRESS ST","Kerrisdale","6500","6500 CYPRESS ST, Vancouver, BC, Canada",49.2269334,-123.1492142,4,49.2271014215414,-123.148837444521
"35",2014,1,1,17,1,"CSG - Licenses","Animal Control","Animal Complaint - Non-Emergency Case","8##","BIDWELL ST","West End","800","800 BIDWELL ST, Vancouver, BC, Canada",49.2902569,-123.1339816,5,49.290425169631,-123.133752848592
"36",2014,1,1,17,25,"ENG - Streets","Traffic and Electrical Operations","Street Light - Out","Intersection","E 43RD AV and LANARK ST","Victoria-Fraserview","Intersection"," E 43RD AV and LANARK ST, Vancouver, BC, Canada",49.23065,-123.07567,2,49.2308805255045,-123.075399278217
"37",2014,1,1,17,29,"ENG - Streets","Traffic and Electrical Operations","Street Light - Out","5700"," - 5899 LANARK ST","Victoria-Fraserview","5700","5700  - 5899 LANARK ST, Vancouver, BC, Canada",49.2325587,-123.0753749,2,49.2330189400501,-123.074936991155
"38",2014,1,1,17,32,"ENG - Solid Waste","Sanitation","Missed Recycling Pickup","33##","W 2ND AV","Kitsilano","3300","3300 W 2ND AV, Vancouver, BC, Canada",49.2701451,-123.1778224,3,49.2706160572209,-123.177545331963
"39",2014,1,1,17,35,"ENG - Solid Waste","Sanitation","Street Cleaning & Debris Pickup","7000"," - 7099 KNIGHT ST","Victoria-Fraserview","7000","7000  - 7099 KNIGHT ST, Vancouver, BC, Canada",49.2202921,-123.0773451,2,49.2204392230678,-123.077195175015
"40",2014,1,1,17,38,"ENG - Streets","Traffic and Electrical Operations","Sign - Repair","7000"," - 7099 KNIGHT ST","Victoria-Fraserview","7000","7000  - 7099 KNIGHT ST, Vancouver, BC, Canada",49.2202921,-123.0773451,0,49.2205728681553,-123.077199869143
"41",2014,1,1,17,47,"ENG - Solid Waste","Sanitation","Missed Garbage Pickup","35##","W 41ST AV","Dunbar Southlands","3500","3500 W 41ST AV, Vancouver, BC, Canada",49.2346351,-123.1822385,3,49.2350661710657,-123.182014166816
"42",2014,1,1,17,50,"ENG - Solid Waste","Sanitation","Missed Apartment Recycling Pickup","35##","W 4TH AV","Kitsilano","3500","3500 W 4TH AV, Vancouver, BC, Canada",49.2684251,-123.1818833,3,49.2687172168131,-123.181504278953
"43",2014,1,1,17,53,"ENG - Solid Waste","Sanitation","Missed Garbage Pickup","35##","W 4TH AV","Kitsilano","3500","3500 W 4TH AV, Vancouver, BC, Canada",49.2684251,-123.1818833,3,49.2686711989521,-123.181624880595
"44",2014,1,1,18,25,"PRB - Planning and Operations","Street Trees","Street Tree Work Request SR","30##","E KENT AV NORTH","Killarney","3000","3000 E KENT AV NORTH, Vancouver, BC, Canada",49.2065419,-123.0450129,2,49.2068670477296,-123.044783101298
"45",2014,1,1,18,41,"ENG - Streets","Traffic and Electrical Operations","Street Light - Out","65##","DOMAN ST","Killarney","6500","6500 DOMAN ST, Vancouver, BC, Canada",49.2245511,-123.036415,2,49.2248165636621,-123.036291991078
"46",2014,1,1,18,47,"CSG - Licenses","Animal Control","Lost Pets Case","40##","STAUTLO AV","","4000","4000 STAUTLO AV, Vancouver, BC, Canada",49.2287916,-123.1938533,5,49.2290778745808,-123.193719088914
"47",2014,1,1,19,46,"Business Planning & Services","311 Contact Centre","Citizen Feedback","Intersection","E BROADWAY and MAIN ST","Mount Pleasant","Intersection"," E BROADWAY and MAIN ST, Vancouver, BC, Canada",49.26292,-123.10097,0,49.2632391630394,-123.100635904
"48",2014,1,1,20,2,"ENG - Streets","Traffic and Electrical Operations","Street Light - Out","Intersection","E 21ST AV and PRINCE EDWARD ST","Riley Park","Intersection"," E 21ST AV and PRINCE EDWARD ST, Vancouver, BC, Canada",49.25203,-123.09665,2,49.25227844974,-123.09636365471
"49",2014,1,1,20,36,"ENG - Solid Waste","Sanitation","Cart - Green (Yard Trimmings and Food Scraps)","34##","MONS DRIVE","Renfrew-Collingwood","3400","3400 MONS DRIVE, Vancouver, BC, Canada",49.2525762,-123.0308156,3,49.2529982722648,-123.030714444205
"50",2014,1,1,20,40,"ENG - Streets","Traffic and Electrical Operations","Street Light - Out","34##","MONS DRIVE","Renfrew-Collingwood","3400","3400 MONS DRIVE, Vancouver, BC, Canada",49.2525762,-123.0308156,2,49.2529660252597,-123.030473969963
"51",2014,1,1,21,12,"ENG - Water & Sewer","Water Operations","Water Service Turn On/Off Request","1##","W 22ND AV","Riley Park","100","100 W 22ND AV, Vancouver, BC, Canada",49.2508751,-123.1075638,4,49.2510090339418,-123.107287971388
"52",2014,1,2,7,25,"Business Planning & Services","311 Contact Centre","Citizen Feedback","30##","FRASER ST","Mount Pleasant","3000","3000 FRASER ST, Vancouver, BC, Canada",49.2577893,-123.0890851,0,49.258089583571,-123.088606259977
"53",2014,1,2,7,27,"ENG - Solid Waste","Sanitation","Missed Apartment Recycling Pickup","37##","W 8TH AV","West Point Grey","3700","3700 W 8TH AV, Vancouver, BC, Canada",49.2650851,-123.185895,3,49.265576195274,-123.185705844546
"54",2014,1,2,7,34,"ENG - Solid Waste","Sanitation","Missed Recycling Pickup","33##","W 1ST AV","Kitsilano","3300","3300 W 1ST AV, Vancouver, BC, Canada",49.2710551,-123.1778025,3,49.2712962962239,-123.177514232452
"55",2014,1,2,7,37,"CSG - Licenses","Animal Control","Animal Complaint - Non-Emergency Case","7##","RAYMUR AV","Strathcona","700","700 RAYMUR AV, Vancouver, BC, Canada",49.2781043,-123.0830185,5,49.2784009694466,-123.082621603799
"56",2014,1,2,7,52,"ENG - Streets","Traffic and Electrical Operations","Street Light - Out","64##","HUDSON ST","Oakridge","6400","6400 HUDSON ST, Vancouver, BC, Canada",49.2275922,-123.1349051,2,49.2280304207573,-123.134556434567
"57",2014,1,2,8,6,"ENG - Solid Waste","Sanitation","Recycling Bag Request","3##","W 18TH AV","Riley Park","300","300 W 18TH AV, Vancouver, BC, Canada",49.2546807,-123.1112097,3,49.255165505514,-123.111081685533
"58",2014,1,2,8,9,"ENG - Solid Waste","Sanitation","Missed Garbage Pickup","27##","W 20TH AV","Arbutus Ridge","2700","2700 W 20TH AV, Vancouver, BC, Canada",49.2544451,-123.1653402,3,49.254865367298,-123.164954463411
"59",2014,1,2,8,15,"ENG - Solid Waste","Sanitation","Missed Garbage Pickup","29##","W 19TH AV","Arbutus Ridge","2900","2900 W 19TH AV, Vancouver, BC, Canada",49.2553751,-123.1703218,3,49.2557114945456,-123.169953267631
"60",2014,1,2,8,21,"ENG - Solid Waste","Sanitation","Abandoned Garbage Pickup - City Property & Parks","53##","CAMOSUN ST","Dunbar Southlands","5300","5300 CAMOSUN ST, Vancouver, BC, Canada",49.2385021,-123.1966242,3,49.2389047393538,-123.196183017711
"61",2014,1,2,8,22,"ENG - Solid Waste","Sanitation","Missed Garbage Pickup","33##","W 23RD AV","Dunbar Southlands","3300","3300 W 23RD AV, Vancouver, BC, Canada",49.2517851,-123.1787536,3,49.2518967497445,-123.178502052231
"62",2014,1,2,8,23,"ENG - Solid Waste","Sanitation","Missed Recycling Pickup","27##","DUNBAR ST","Kitsilano","2700","2700 DUNBAR ST, Vancouver, BC, Canada",49.2623662,-123.183617,3,49.262587102989,-123.183385968099
"63",2014,1,2,8,26,"ENG - Solid Waste","Sanitation","Missed Recycling Pickup","27##","WATERLOO ST","Kitsilano","2700","2700 WATERLOO ST, Vancouver, BC, Canada",49.2623075,-123.1797144,3,49.2624507619947,-123.179260911148
"64",2014,1,2,8,27,"ENG - Streets","Traffic and Electrical Operations","Street Light - Out","60##","COLLINGWOOD PLACE","Dunbar Southlands","6000","6000 COLLINGWOOD PLACE, Vancouver, BC, Canada",49.2315751,-123.1822504,2,49.2319771472592,-123.181859694155
"65",2014,1,2,8,28,"ENG - Solid Waste","Sanitation","Missed Garbage Pickup","46##","W 4TH AV","West Point Grey","4600","4600 W 4TH AV, Vancouver, BC, Canada",49.2689251,-123.2121332,3,49.2693168077187,-123.211719860636
"66",2014,1,2,8,30,"ENG - Solid Waste","Sanitation","Missed Yard Trimmings and Food Scraps Pickup","46##","W 4TH AV","West Point Grey","4600","4600 W 4TH AV, Vancouver, BC, Canada",49.2689251,-123.2121332,3,49.2691561870182,-123.211763132436
"67",2014,1,2,8,30,"ENG - Solid Waste","Sanitation","Missed Yard Trimmings and Food Scraps Pickup","##","W 12TH AV","Mount Pleasant","00","00 W 12TH AV, Vancouver, BC, Canada",49.26101,-123.15276,3,49.2612129565253,-123.152431968956
"68",2014,1,2,8,32,"CSG - Licenses","Animal Control","Dead Animal Pickup Case","26##","W 31ST AV","Arbutus Ridge","2600","2600 W 31ST AV, Vancouver, BC, Canada",49.2440551,-123.1644928,5,49.2443317510867,-123.164232223174
"69",2014,1,2,8,35,"ENG - Water & Sewer","Sewers Operations","Sewer Pipe Inquiries","28##","ROSEMONT DRIVE","Killarney","2800","2800 ROSEMONT DRIVE, Vancouver, BC, Canada",49.2179781,-123.0488275,2,49.2182159083482,-123.048624160941
"70",2014,1,2,8,36,"ENG - Solid Waste","Sanitation","Missed Garbage Pickup","27##","W 17TH AV","Arbutus Ridge","2700","2700 W 17TH AV, Vancouver, BC, Canada",49.2568951,-123.1652336,3,49.2570476153602,-123.164859514003
"71",2014,1,2,8,36,"ENG - Solid Waste","Sanitation","Missed Recycling Pickup","36##","W 2ND AV","Kitsilano","3600","3600 W 2ND AV, Vancouver, BC, Canada",49.2702251,-123.1837647,3,49.2705962318709,-123.183435686906
"72",2014,1,2,8,38,"ENG - Solid Waste","Sanitation","Missed Garbage Pickup","17##","W 59TH AV","Marpole","1700","1700 W 59TH AV, Vancouver, BC, Canada",49.2175758,-123.1462168,3,49.2178845180084,-123.145853471278
"73",2014,1,2,8,39,"ENG - Streets","Traffic and Electrical Operations","Street Light - Out","34##","ARCHIMEDES ST","Renfrew-Collingwood","3400","3400 ARCHIMEDES ST, Vancouver, BC, Canada",49.2348442,-123.0323193,2,49.2351795960553,-123.032120161271
"74",2014,1,2,8,41,"Public Safety - Fire","Prevention","Fire Reinspection Request for Firehall","18##","MAIN ST","Mount Pleasant","1800","1800 MAIN ST, Vancouver, BC, Canada",49.26872,-123.10042,0,49.268857513527,-123.100310601233
"75",2014,1,2,8,44,"Business Planning & Services","311 Contact Centre","Citizen Feedback","74##","LABURNUM ST","Kerrisdale","7400","7400 LABURNUM ST, Vancouver, BC, Canada",49.2181758,-123.1508675,0,49.2184389978396,-123.150748790155
"76",2014,1,2,8,45,"ENG - Solid Waste","Sanitation","Street Litter Can Request","13##","MARINASIDE CRESCENT","Downtown","1300","1300 MARINASIDE CRESCENT, Vancouver, BC, Canada",49.271734,-123.1215129,2,49.2721888528491,-123.121246400123
"77",2014,1,2,8,46,"ENG - Solid Waste","Sanitation","Missed Garbage Pickup","27##","W 20TH AV","Arbutus Ridge","2700","2700 W 20TH AV, Vancouver, BC, Canada",49.2544451,-123.1653402,3,49.2548715342426,-123.16496995529
"78",2014,1,2,8,47,"ENG - Solid Waste","Sanitation","Missed Yard Trimmings and Food Scraps Pickup","27##","W 20TH AV","Arbutus Ridge","2700","2700 W 20TH AV, Vancouver, BC, Canada",49.2544451,-123.1653402,3,49.2548481116621,-123.165162320289
"79",2014,1,2,8,51,"CSG - Inspections","Electrical","Electrical Inspection Cancellation Case","13##","E 20TH AV","Kensington-Cedar Cottage","1300","1300 E 20TH AV, Vancouver, BC, Canada",49.2525247,-123.0777035,0,49.2527456350184,-123.077581366369
"80",2014,1,2,8,53,"ENG - Streets","Traffic and Electrical Operations","Street Light - Out","63##","CEDARHURST ST","Kerrisdale","6300","6300 CEDARHURST ST, Vancouver, BC, Canada",49.2291661,-123.1714044,2,49.2296396180187,-123.171224154868
"81",2014,1,2,8,54,"ENG - Solid Waste","Sanitation","Cart - Garbage","8##","W 24TH AV","South Cambie","800","800 W 24TH AV, Vancouver, BC, Canada",49.2500151,-123.1225054,3,49.2503578251297,-123.122052424611
"82",2014,1,2,9,1,"ENG - Solid Waste","Sanitation","Abandoned Garbage Pickup - City Property & Parks","7##","PRIOR ST","Strathcona","700","700 PRIOR ST, Vancouver, BC, Canada",49.2764443,-123.0894273,3,49.2767491429886,-123.088956621288
"83",2014,1,2,9,3,"ENG - Water & Sewer","Water Operations","Water Service Turn On/Off Request","6##","MAIN ST","Downtown","600","600 MAIN ST, Vancouver, BC, Canada",49.2793174,-123.0995343,4,49.2797608708209,-123.099235281991
"84",2014,1,2,9,4,"ENG - Solid Waste","Sanitation","Missed Recycling Pickup","29##","W 2ND AV","Kitsilano","2900","2900 W 2ND AV, Vancouver, BC, Canada",49.2700451,-123.1710118,3,49.2701534947289,-123.170608159522
"85",2014,1,2,9,5,"CSG - Licenses","Animal Control","Dead Animal Pickup Case","14##","E 49TH AV","Victoria-Fraserview","1400","1400 E 49TH AV, Vancouver, BC, Canada",49.2251651,-123.0770733,5,49.2255627933626,-123.076660556811
"86",2014,1,2,9,7,"Public Safety - Fire","Prevention","Fire Reinspection Request for Firehall","3##","KEEFER ST","Strathcona","300","300 KEEFER ST, Vancouver, BC, Canada",49.2792742,-123.096984,0,49.2795370157593,-123.096520622333
"87",2014,1,2,9,8,"ENG - Solid Waste","Sanitation","Missed Garbage Pickup","##","E BROADWAY","Mount Pleasant","00","00 E BROADWAY, Vancouver, BC, Canada",49.26237,-123.06707,3,49.2626127566425,-123.066851823284
"88",2014,1,2,9,10,"Public Safety - Fire","Prevention","Fire Reinspection Request for Inspector","7##","GORE AV","Strathcona","700","700 GORE AV, Vancouver, BC, Canada",49.278291,-123.0968513,0,49.2785065023938,-123.096743443591
"89",2014,1,2,9,15,"ENG - Solid Waste","Sanitation","Collection Calendar Mail-Out Request","53##","CULLODEN ST","Kensington-Cedar Cottage","5300","5300 CULLODEN ST, Vancouver, BC, Canada",49.23668,-123.0781551,3,49.2370199100699,-123.077862578196
"90",2014,1,2,9,15,"ENG - Streets","Traffic and Electrical Operations","Street Light - Out","41##","HEATHER ST","South Cambie","4100","4100 HEATHER ST, Vancouver, BC, Canada",49.2488634,-123.120154,2,49.2491466749427,-123.119691974854
"91",2014,1,2,9,16,"ENG - Solid Waste","Sanitation","Cart - Garbage","60##","COLLINGWOOD PLACE","Dunbar Southlands","6000","6000 COLLINGWOOD PLACE, Vancouver, BC, Canada",49.2315751,-123.1822504,3,49.2319803812465,-123.182010389277
"92",2014,1,2,9,25,"CSG - Inspections","Property Use","PUI Noise Complaint Case","34##","W BROADWAY","Kitsilano","3400","3400 W BROADWAY, Vancouver, BC, Canada",49.2641451,-123.1800524,1,49.2642942752792,-123.179841898503
"93",2014,1,2,9,27,"ENG - Solid Waste","Sanitation","Collection Calendar Mail-Out Request","40##","W 27TH AV","Dunbar Southlands","4000","4000 W 27TH AV, Vancouver, BC, Canada",49.2479951,-123.1937946,3,49.2481759562115,-123.193424952098
"94",2014,1,2,9,32,"ENG - Solid Waste","Sanitation","Abandoned Garbage Pickup - City Property & Parks","8##","E 52ND AV","Sunset","800","800 E 52ND AV, Vancouver, BC, Canada",49.2225449,-123.0878376,3,49.222674404946,-123.087593419541
"95",2014,1,2,9,37,"ENG - Solid Waste","Sanitation","Missed Recycling Pickup","34##","W 39TH AV","Dunbar Southlands","3400","3400 W 39TH AV, Vancouver, BC, Canada",49.2363243,-123.180209,3,49.2368133845778,-123.179798301863
"96",2014,1,2,9,38,"ENG - Solid Waste","Sanitation","Missed Garbage Pickup","37##","BLENHEIM ST","Dunbar Southlands","3700","3700 BLENHEIM ST, Vancouver, BC, Canada",49.253612,-123.1784151,3,49.2537714166809,-123.178282836773
"97",2014,1,2,9,41,"ENG - Streets","Traffic and Electrical Operations","Sign - Repair","700"," - 799 E 37TH AV","Kensington-Cedar Cottage","700","700  - 799 E 37TH AV, Vancouver, BC, Canada",49.2364551,-123.0895536,0,49.2368155412509,-123.089085077752
"98",2014,1,2,9,44,"ENG - Transportation","Neighbourhood Parking and Transportation","Residential Parking Requests","34##","COMMERCIAL ST","Kensington-Cedar Cottage","3400","3400 COMMERCIAL ST, Vancouver, BC, Canada",49.253925,-123.0676605,2,49.2540280950782,-123.06753468417
"99",2014,1,2,9,45,"ENG - Solid Waste","Sanitation","Abandoned Garbage Pickup - City Property & Parks","4##","JACKSON AV","Strathcona","400","400 JACKSON AV, Vancouver, BC, Canada",49.2810618,-123.0932341,3,49.2812640984789,-123.092942601322
"100",2014,1,2,9,46,"ENG - Solid Waste","Sanitation","Street Cleaning & Debris Pickup","35##","HERON PLACE","Killarney","3500","3500 HERON PLACE, Vancouver, BC, Canada",49.2119474,-123.0261567,2,49.2124041386095,-123.025978844507
"101",2014,1,2,9,49,"Business Planning & Services","311 Contact Centre","Citizen Feedback","Intersection","E 38TH AV and EARLES ST","Renfrew-Collingwood","Intersection"," E 38TH AV and EARLES ST, Vancouver, BC, Canada",49.23585,-123.04886,0,49.236047890765,-123.048496983772
"102",2014,1,2,9,51,"ENG - Solid Waste","Sanitation","Missed Recycling Pickup","34##","W 12TH AV","Kitsilano","3400","3400 W 12TH AV, Vancouver, BC, Canada",49.2614251,-123.1801601,3,49.2618041637916,-123.179919687329
"103",2014,1,2,9,52,"CSG - Licenses & Inspections","Administration Branch","Building Plans Information Request","31##","CLARK DRIVE","Mount Pleasant","3100","3100 CLARK DRIVE, Vancouver, BC, Canada",49.2565862,-123.0777051,0,49.2567070513837,-123.077559505014
"104",2014,1,2,9,52,"Public Safety - Fire","Prevention","Fire Reinspection Request for Firehall","19##","MAIN ST","Mount Pleasant","1900","1900 MAIN ST, Vancouver, BC, Canada",49.26804,-123.10021,0,49.2684467977406,-123.099939715578
"105",2014,1,2,9,53,"CSG - Licenses","License Office","Licence Payment Request Case","29##","HORLEY ST","Renfrew-Collingwood","2900","2900 HORLEY ST, Vancouver, BC, Canada",49.2391077,-123.0455765,0,49.2394486638078,-123.045160891947
"106",2014,1,2,9,53,"ENG - Streets","Streets Operations","Streets - General Issues","24##","W 10TH AV","Kitsilano","2400","2400 W 10TH AV, Vancouver, BC, Canada",49.2628151,-123.1602134,2,49.2632443437556,-123.159849659935
"107",2014,1,2,9,56,"ENG - Streets","Traffic and Electrical Operations","Street Light - Pole Repair","22##","CYPRESS ST","Kitsilano","2200","2200 CYPRESS ST, Vancouver, BC, Canada",49.2662075,-123.1478251,2,49.2666378661135,-123.147577724482
"108",2014,1,2,9,58,"ENG - Solid Waste","Sanitation","Cart - Garbage","71##","GLADSTONE ST","Victoria-Fraserview","7100","7100 GLADSTONE ST, Vancouver, BC, Canada",49.2192507,-123.061735,3,49.2195973875037,-123.061268142286
"109",2014,1,2,9,59,"ENG - Solid Waste","Sanitation","Cart - Green (Yard Trimmings and Food Scraps)","49##","CHATHAM ST","Renfrew-Collingwood","4900","4900 CHATHAM ST, Vancouver, BC, Canada",49.2399848,-123.0396712,3,49.2403702566117,-123.039342578459
"110",2014,1,2,9,59,"ENG - Water & Sewer","Water Operations","Water Service Locate Request","13##","E 3RD AV","Grandview-Woodland","1300","1300 E 3RD AV, Vancouver, BC, Canada",49.2676951,-123.0771947,4,49.2678401287742,-123.076785702039
"111",2014,1,2,10,1,"CSG - Licenses","License Office","Licence Payment Request Case","14##","E GEORGIA ST","Grandview-Woodland","1400","1400 E GEORGIA ST, Vancouver, BC, Canada",49.2784203,-123.075712,0,49.2788537000542,-123.075386624201
"112",2014,1,2,10,3,"ENG - Streets","Traffic and Electrical Operations","Street Light - Out","Intersection","ALMA ST and W 4TH AV","Kitsilano","Intersection"," ALMA ST and W 4TH AV, Vancouver, BC, Canada",49.26864,-123.18573,2,49.2689831704569,-123.185300672225
"113",2014,1,2,10,5,"ENG - Solid Waste","Sanitation","Street Cleaning & Debris Pickup","3900"," - 3999 W 23RD AV","Dunbar Southlands","3900","3900  - 3999 W 23RD AV, Vancouver, BC, Canada",49.2518551,-123.1910513,2,49.2521555850942,-123.19073663413
"114",2014,1,2,10,5,"PRB - Planning and Operations","Street Trees","Street Tree Work Request SR","22##","E 38TH AV","Kensington-Cedar Cottage","2200","2200 E 38TH AV, Vancouver, BC, Canada",49.2357751,-123.0618814,2,49.2362446506228,-123.061725505429
"115",2014,1,2,10,9,"CSG - Licenses","License Office","Licence Payment Request Case","48##","MAIN ST","Riley Park","4800","4800 MAIN ST, Vancouver, BC, Canada",49.242176,-123.1013051,0,49.2425258875607,-123.101161564038
"116",2014,1,2,10,10,"ENG - Solid Waste","Sanitation","Abandoned Garbage Pickup - City Property & Parks","25##","W 5TH AV","Kitsilano","2500","2500 W 5TH AV, Vancouver, BC, Canada",49.2672851,-123.1624922,3,49.2677105618538,-123.162192006077
"117",2014,1,2,10,12,"Public Safety - Fire","Prevention","Fire Reinspection Request for Firehall","5##","BUTE ST","Downtown","500","500 BUTE ST, Vancouver, BC, Canada",49.2882522,-123.1232971,0,49.2884931868307,-123.123132522008
"118",2014,1,2,10,12,"PRB - Planning and Operations","Street Trees","Street Tree Work Request SR","8200"," - 8399 MATHESON CRESCENT","Killarney","8200","8200  - 8399 MATHESON CRESCENT, Vancouver, BC, Canada",49.2113047,-123.0264458,2,49.2116625545205,-123.026184415476
"119",2014,1,2,10,13,"Business Planning & Services","311 Contact Centre","Citizen Feedback","6##","E 14TH AV","Mount Pleasant","600","600 E 14TH AV, Vancouver, BC, Canada",49.25772,-123.09107,0,49.2578863245166,-123.090627732427
"120",2014,1,2,10,20,"ENG - Solid Waste","Sanitation","Recycling Bag Request","9##","E 16TH AV","Kensington-Cedar Cottage","900","900 E 16TH AV, Vancouver, BC, Canada",49.2562647,-123.0853012,3,49.2566157785184,-123.08480801836
"121",2014,1,2,10,21,"ENG - Solid Waste","Sanitation","Recycling Box Request","9##","E 16TH AV","Kensington-Cedar Cottage","900","900 E 16TH AV, Vancouver, BC, Canada",49.2562647,-123.0853012,3,49.2564799936128,-123.085008419562
"122",2014,1,2,10,24,"CSG - Inspections","Property Use","PUI Noise Complaint Case","14##","W 8TH AV","Fairview","1400","1400 W 8TH AV, Vancouver, BC, Canada",49.2643451,-123.1362335,1,49.2646153220295,-123.135846106679
"123",2014,1,2,10,24,"CSG - Licenses","License Office","Gone Out of Business Case","16##","HORNBY ST","Downtown","1600","1600 HORNBY ST, Vancouver, BC, Canada",49.27398,-123.13412,0,49.2740907135902,-123.133714364884
"124",2014,1,2,10,29,"ENG - Solid Waste","Sanitation","Recycling Bag Request","25##","E 16TH AV","Renfrew-Collingwood","2500","2500 E 16TH AV, Vancouver, BC, Canada",49.2555751,-123.0547479,3,49.2559820251924,-123.054525460042
"125",2014,1,2,10,31,"Public Safety - Fire","Prevention","Fire Reinspection Request for Firehall","13##","POWELL ST","Grandview-Woodland","1300","1300 POWELL ST, Vancouver, BC, Canada",49.2830053,-123.0766805,0,49.2831867621969,-123.076410859666
"126",2014,1,2,10,34,"ENG - Solid Waste","Sanitation","Missed Garbage Pickup","44##","W 12TH AV","West Point Grey","4400","4400 W 12TH AV, Vancouver, BC, Canada",49.2618251,-123.2063422,3,49.2619264981178,-123.206182519601
"127",2014,1,2,10,34,"Public Safety - Fire","Prevention","Fire Reinspection Request for Firehall","1##","E 8TH AV","Mount Pleasant","100","100 E 8TH AV, Vancouver, BC, Canada",49.2635847,-123.1026858,0,49.2637264880857,-123.102331763761
"128",2014,1,2,10,35,"ENG - Solid Waste","Sanitation","Recycling Bag Request","7##","NANAIMO ST","Grandview-Woodland","700","700 NANAIMO ST, Vancouver, BC, Canada",49.2782183,-123.0564351,3,49.2783827599473,-123.056247513798
"129",2014,1,2,10,38,"ENG - Solid Waste","Sanitation","Cart - Garbage","40##","W 28TH AV","Dunbar Southlands","4000","4000 W 28TH AV, Vancouver, BC, Canada",49.2470851,-123.1937954,3,49.2475400279473,-123.19335518622
"130",2014,1,2,10,38,"ENG - Solid Waste","Sanitation","Cart - Garbage","32##","W 36TH AV","Dunbar Southlands","3200","3200 W 36TH AV, Vancouver, BC, Canada",49.2393551,-123.1759721,3,49.239750132207,-123.175674416661
"131",2014,1,2,10,39,"Public Safety - Fire","Prevention","Fire Reinspection Request for Firehall","21##","E HASTINGS ST","Grandview-Woodland","2100","2100 E HASTINGS ST, Vancouver, BC, Canada",49.2810251,-123.0614396,0,49.2812204227549,-123.060978345048
"132",2014,1,2,10,40,"ENG - Solid Waste","Sanitation","Collection Calendar Mail-Out Request","74##","LABURNUM ST","Kerrisdale","7400","7400 LABURNUM ST, Vancouver, BC, Canada",49.2181758,-123.1508675,3,49.2185033819355,-123.150630691555
"133",2014,1,2,10,40,"ENG - Solid Waste","Sanitation","Cart - Garbage","58##","ADERA ST","Kerrisdale","5800","5800 ADERA ST, Vancouver, BC, Canada",49.2338297,-123.143077,3,49.2340770897636,-123.142888860152
"134",2014,1,2,10,40,"ENG - Solid Waste","Sanitation","Cart - Green (Yard Trimmings and Food Scraps)","40##","W 28TH AV","Dunbar Southlands","4000","4000 W 28TH AV, Vancouver, BC, Canada",49.2470851,-123.1937954,3,49.2475602571902,-123.193428166933
"135",2014,1,2,10,41,"ENG - Solid Waste","Sanitation","Abandoned Garbage Pickup - City Property & Parks","13##","DAVIE ST","West End","1300","1300 DAVIE ST, Vancouver, BC, Canada",49.2827663,-123.135142,3,49.283111339493,-123.134999775773
"136",2014,1,2,10,42,"ENG - Streets","Traffic and Electrical Operations","Street Light - Out","8##","SW MARINE DRIVE","Marpole","800","800 SW MARINE DRIVE, Vancouver, BC, Canada",49.2068501,-123.1246164,2,49.2072089703335,-123.124263298838
"137",2014,1,2,10,42,"ENG - Streets","Traffic and Electrical Operations","Street Light - Out","62##","BLENHEIM ST","Kerrisdale","6200","6200 BLENHEIM ST, Vancouver, BC, Canada",49.2299539,-123.1785037,2,49.2301731067399,-123.178178250983
"138",2014,1,2,10,42,"ENG - Transportation","Street Activities - Streets Furniture","Street Furniture Repair and Maintenance Request","Intersection","BROCK ST and NANAIMO ST","Renfrew-Collingwood","Intersection"," BROCK ST and NANAIMO ST, Vancouver, BC, Canada",49.24379,-123.05665,2,49.2440803971679,-123.056366457165
"139",2014,1,2,10,44,"ENG - Streets","Traffic and Electrical Operations","Street Light - Out","9##","W 33RD AV","South Cambie","900","900 W 33RD AV, Vancouver, BC, Canada",49.2412352,-123.1252169,2,49.2415198022093,-123.124976770327
"140",2014,1,2,10,45,"ENG - Solid Waste","Sanitation","Missed Garbage Pickup","41##","W 12TH AV","West Point Grey","4100","4100 W 12TH AV, Vancouver, BC, Canada",49.2616851,-123.1972027,3,49.2620246006122,-123.196956819915
"141",2014,1,2,10,48,"Business Planning & Services","311 Contact Centre","Citizen Feedback","1##","ONTARIO PLACE","Sunset","100","100 ONTARIO PLACE, Vancouver, BC, Canada",49.2324447,-123.1034686,0,49.232882905132,-123.103044198276
"142",2014,1,2,10,48,"ENG - Solid Waste","Sanitation","Cart - Green (Yard Trimmings and Food Scraps)","9##","E 20TH AV","Kensington-Cedar Cottage","900","900 E 20TH AV, Vancouver, BC, Canada",49.2526449,-123.0855003,3,49.253048948594,-123.085174505768
"143",2014,1,2,10,52,"ENG - Solid Waste","Sanitation","Cart - Garbage","44##","W 7TH AV","West Point Grey","4400","4400 W 7TH AV, Vancouver, BC, Canada",49.2662451,-123.2061632,3,49.2664827585596,-123.20574753281
"144",2014,1,2,10,52,"ENG - Solid Waste","Sanitation","Cart - Garbage","9##","E 20TH AV","Kensington-Cedar Cottage","900","900 E 20TH AV, Vancouver, BC, Canada",49.2526449,-123.0855003,3,49.2530071423372,-123.085023507078
"145",2014,1,2,10,52,"ENG - Solid Waste","Sanitation","Missed Recycling Pickup","30##","W 7TH AV","Kitsilano","3000","3000 W 7TH AV, Vancouver, BC, Canada",49.2656996,-123.1721828,3,49.2661478535494,-123.171715787506
"146",2014,1,2,10,53,"ENG - Streets","Streets Operations","Street - Surface Water Flooding","Intersection","E 6TH AV and GLEN DRIVE and GREAT NORTHERN WAY","Strathcona","Intersection"," E 6TH AV and GLEN DRIVE and GREAT NORTHERN WAY, Vancouver, BC, Canada",49.26524,-123.08129,2,49.2655581792054,-123.080881983565
"147",2014,1,2,10,54,"ENG - Solid Waste","Sanitation","Blue Box and Leaf Removal Guide Mail-Out Request","9##","E 20TH AV","Kensington-Cedar Cottage","900","900 E 20TH AV, Vancouver, BC, Canada",49.2526449,-123.0855003,3,49.2528001335503,-123.085211124645
"148",2014,1,2,10,55,"ENG - Solid Waste","Sanitation","Missed Garbage Pickup","34##","CHERRY ST","Renfrew-Collingwood","3400","3400 CHERRY ST, Vancouver, BC, Canada",49.2344636,-123.0327304,3,49.2346587030695,-123.032254146153
"149",2014,1,2,10,55,"ENG - Streets","Traffic and Electrical Operations","Street Light - Out","9##","E 17TH AV","Kensington-Cedar Cottage","900","900 E 17TH AV, Vancouver, BC, Canada",49.2553347,-123.0853608,2,49.2556653000833,-123.085233869629
"150",2014,1,2,10,55,"ENG - Solid Waste","Sanitation","Recycling Bag Request","1##","ONTARIO PLACE","Sunset","100","100 ONTARIO PLACE, Vancouver, BC, Canada",49.2324447,-123.1034686,3,49.2328005880661,-123.103202904298
"151",2014,1,2,10,55,"ENG - Solid Waste","Sanitation","Recycling Bag Request","9##","E 20TH AV","Kensington-Cedar Cottage","900","900 E 20TH AV, Vancouver, BC, Canada",49.2526449,-123.0855003,3,49.2530324087682,-123.085334027401
"152",2014,1,2,10,56,"ENG - Streets","Streets Operations","Streets - General Issues","27##","W 5TH AV","Kitsilano","2700","2700 W 5TH AV, Vancouver, BC, Canada",49.2672,-123.16661,2,49.2676237919307,-123.166350703072
"153",2014,1,2,10,58,"ENG - Solid Waste","Sanitation","Abandoned Garbage Pickup - City Property & Parks","36##","FRASER ST","Kensington-Cedar Cottage","3600","3600 FRASER ST, Vancouver, BC, Canada",49.2526944,-123.0898151,3,49.2530474835647,-123.089617148197
"154",2014,1,2,10,59,"ENG - Solid Waste","Sanitation","Cart - Garbage","27##","OXFORD ST","Hastings-Sunrise","2700","2700 OXFORD ST, Vancouver, BC, Canada",49.2855751,-123.0490493,3,49.2859425897818,-123.048677598464
"155",2014,1,2,11,0,"ENG - Solid Waste","Solid Waste Management","Illegal Dumping/Abandoned Garbage Pickup","36##","FRASER ST","Kensington-Cedar Cottage","3600","3600 FRASER ST, Vancouver, BC, Canada",49.2526944,-123.0898151,3,49.252904380338,-123.089385265993
"156",2014,1,2,11,2,"ENG - Solid Waste","Sanitation","Missed Yard Trimmings and Food Scraps Pickup","27##","COLLINGWOOD ST","Kitsilano","2700","2700 COLLINGWOOD ST, Vancouver, BC, Canada",49.2623492,-123.1816944,3,49.2625897758507,-123.181464933186
"157",2014,1,2,11,3,"ENG - Solid Waste","Sanitation","Recycling Bag Request","11##","W 49TH AV","Oakridge","1100","1100 W 49TH AV, Vancouver, BC, Canada",49.2264912,-123.130303,3,49.2267735134097,-123.129949749158
"158",2014,1,2,11,4,"ENG - Solid Waste","Sanitation","Cart - Green (Yard Trimmings and Food Scraps)","27##","KEMPTON PLACE","Victoria-Fraserview","2700","2700 KEMPTON PLACE, Vancouver, BC, Canada",49.2191293,-123.0511983,3,49.2196195375907,-123.050864981677
"159",2014,1,2,11,4,"ENG - Streets","Streets Operations","Sidewalk - Repair","15##","HORNBY ST","Downtown","1500","1500 HORNBY ST, Vancouver, BC, Canada",49.2751694,-123.1328557,2,49.2755470501207,-123.132415033897
"160",2014,1,2,11,7,"ENG - Solid Waste","Sanitation","Cart - Garbage","27##","KEMPTON PLACE","Victoria-Fraserview","2700","2700 KEMPTON PLACE, Vancouver, BC, Canada",49.2191293,-123.0511983,3,49.2192305433733,-123.050986248132
"161",2014,1,2,11,7,"PRB - Administration","General Park Board Information","PRB_Park Ranger SR","4##","E 51ST AV","Sunset","400","400 E 51ST AV, Vancouver, BC, Canada",49.2235943,-123.0972875,0,49.2239259760262,-123.097182492708
"162",2014,1,2,11,10,"ENG - Solid Waste","Sanitation","Cart - Garbage","1##","W 44TH AV","Oakridge","100","100 W 44TH AV, Vancouver, BC, Canada",49.2303452,-123.1084249,3,49.2306286778924,-123.108227451042
"163",2014,1,2,11,12,"ENG - Solid Waste","Sanitation","Cart - Green (Yard Trimmings and Food Scraps)","1##","W 44TH AV","Oakridge","100","100 W 44TH AV, Vancouver, BC, Canada",49.2303452,-123.1084249,3,49.2308326044082,-123.107986564974
"164",2014,1,2,11,13,"ENG - Transportation","Parking Ops & Enforcement","Abandoned Vehicle Request","18##","TRIUMPH ST","Grandview-Woodland","1800","1800 TRIUMPH ST, Vancouver, BC, Canada",49.2834167,-123.0679787,2,49.283596094436,-123.067834224169
"165",2014,1,2,11,14,"CSG - Licenses","License Office","Licence Payment Request Case","21##","E HASTINGS ST","Grandview-Woodland","2100","2100 E HASTINGS ST, Vancouver, BC, Canada",49.2810251,-123.0614396,0,49.2812630076337,-123.061213448396
"166",2014,1,2,11,16,"ENG - Solid Waste","Sanitation","Cart - Garbage","36##","GLEN DRIVE","Kensington-Cedar Cottage","3600","3600 GLEN DRIVE, Vancouver, BC, Canada",49.252595,-123.0816751,3,49.2530007953567,-123.081565044919
"167",2014,1,2,11,16,"ENG - Solid Waste","Sanitation","Cart - Green (Yard Trimmings and Food Scraps)","1##","W 44TH AV","Oakridge","100","100 W 44TH AV, Vancouver, BC, Canada",49.2303452,-123.1084249,3,49.2306653243613,-123.108048499079
"168",2014,1,2,11,17,"CSG - Licenses","License Office","Licence Payment Request Case","66##","MAIN ST","Sunset","6600","6600 MAIN ST, Vancouver, BC, Canada",49.2246172,-123.1014545,0,49.2248814497479,-123.101157816839
"169",2014,1,2,11,20,"ENG - Solid Waste","Sanitation","Cart - Garbage","2##","E 63RD AV","Sunset","200","200 E 63RD AV, Vancouver, BC, Canada",49.2135532,-123.101865,3,49.2137550625091,-123.101749310131
"170",2014,1,2,11,24,"ENG - Solid Waste","Sanitation","Missed Garbage Pickup","27##","W 16TH AV","Arbutus Ridge","2700","2700 W 16TH AV, Vancouver, BC, Canada",49.2574158,-123.165901,3,49.2577875278761,-123.165781246187
"171",2014,1,2,11,25,"ENG - Solid Waste","Sanitation","Abandoned Garbage Pickup - City Property & Parks","37##","RENFREW ST","","3700","3700 RENFREW ST, Vancouver, BC, Canada",49.2513811,-123.0441951,3,49.2515161983268,-123.04404273528
"172",2014,1,2,11,28,"ENG - Solid Waste","Sanitation","Missed Yard Trimmings and Food Scraps Pickup","4##","GREENSBORO PLACE","Oakridge","400","400 GREENSBORO PLACE, Vancouver, BC, Canada",49.2240467,-123.1148926,3,49.2242153300787,-123.114584947987
"173",2014,1,2,11,29,"ENG - Solid Waste","Sanitation","Missed Garbage Pickup","27##","HEMLOCK ST","Fairview","2700","2700 HEMLOCK ST, Vancouver, BC, Canada",49.2615417,-123.1360351,3,49.2616466488882,-123.135704938634
"174",2014,1,2,11,29,"Business Planning & Services","311 Contact Centre","Citizen Feedback","48##","SLOCAN ST","Renfrew-Collingwood","4800","4800 SLOCAN ST, Vancouver, BC, Canada",49.2412425,-123.0525731,0,49.24153205377,-123.05217476063
"175",2014,1,2,11,29,"Business Planning & Services","311 Contact Centre","Citizen Feedback","65##","MAPLE ST","Kerrisdale","6500","6500 MAPLE ST, Vancouver, BC, Canada",49.2269576,-123.1521155,0,49.2272790421687,-123.151772923645
"176",2014,1,2,11,31,"ENG - Solid Waste","Sanitation","Cart - Apartment Recycling","19##","W 12TH AV","Kitsilano","1900","1900 W 12TH AV, Vancouver, BC, Canada",49.26064,-123.14848,3,49.2610004329941,-123.148035498577
"177",2014,1,2,11,31,"ENG - Water & Sewer","Water Operations","Water Work Site Complaint","69##","WILTSHIRE ST","Kerrisdale","6900","6900 WILTSHIRE ST, Vancouver, BC, Canada",49.2230112,-123.1464883,4,49.2233959110241,-123.146113160782
"178",2014,1,2,11,32,"ENG - Solid Waste","Sanitation","Missed Garbage Pickup","27##","W 16TH AV","Arbutus Ridge","2700","2700 W 16TH AV, Vancouver, BC, Canada",49.2574158,-123.165901,3,49.2576458824007,-123.165594255231
"179",2014,1,2,11,33,"CSG - Inspections","Property Use","PUI Noise Complaint Case","14##","W 8TH AV","Fairview","1400","1400 W 8TH AV, Vancouver, BC, Canada",49.2643451,-123.1362335,1,49.2645287350457,-123.135779444788
"180",2014,1,2,11,34,"CSG - Inspections","Property Use","PUI Noise Complaint Case","4##","DAVIE ST","Downtown","400","400 DAVIE ST, Vancouver, BC, Canada",49.2752445,-123.1235256,1,49.2754123443721,-123.123034475685
"181",2014,1,2,11,35,"CSG - Licenses","Animal Control","Animal Control General Inquiry Case","6##","CITADEL PARADE","Downtown","600","600 CITADEL PARADE, Vancouver, BC, Canada",49.279193,-123.1101975,5,49.279351689335,-123.109854253409
"182",2014,1,2,11,35,"ENG - Solid Waste","Sanitation","Missed Yard Trimmings and Food Scraps Pickup","56##","MANSON ST","South Cambie","5600","5600 MANSON ST, Vancouver, BC, Canada",49.2348062,-123.1190797,3,49.2351618676732,-123.118847800515
"183",2014,1,2,11,37,"ENG - Solid Waste","Sanitation","Cart - Garbage","6##","W 23RD AV","South Cambie","600","600 W 23RD AV, Vancouver, BC, Canada",49.2505351,-123.118502,3,49.250741663768,-123.118099997591
"184",2014,1,2,11,38,"ENG - Solid Waste","Sanitation","Parks Litter Can or Cart Request","62##","KILLARNEY ST","Killarney","6200","6200 KILLARNEY ST, Vancouver, BC, Canada",49.2262277,-123.0453641,3,49.2263700070925,-123.045024643215
"185",2014,1,2,11,39,"ENG - Solid Waste","Sanitation","Recycling Bag Request","6##","W 23RD AV","South Cambie","600","600 W 23RD AV, Vancouver, BC, Canada",49.2505351,-123.118502,3,49.2507285582851,-123.118301095102
"186",2014,1,2,11,40,"ENG - Solid Waste","Sanitation","Cart - Garbage","3##","E 62ND AV","Sunset","300","300 E 62ND AV, Vancouver, BC, Canada",49.2142069,-123.1001489,3,49.214653459325,-123.099856648083
"187",2014,1,2,11,41,"ENG - Solid Waste","Sanitation","Missed Recycling Pickup","3##","W 20TH AV","Riley Park","300","300 W 20TH AV, Vancouver, BC, Canada",49.2527545,-123.1112205,3,49.2532414738704,-123.110888088439
"188",2014,1,2,11,41,"ENG - Solid Waste","Sanitation","Cart - Green (Yard Trimmings and Food Scraps)","3##","E 62ND AV","Sunset","300","300 E 62ND AV, Vancouver, BC, Canada",49.2142069,-123.1001489,3,49.2146207818736,-123.099925324385
"189",2014,1,2,11,42,"Business Planning & Services","311 Contact Centre","Citizen Feedback","3##","W 20TH AV","Riley Park","300","300 W 20TH AV, Vancouver, BC, Canada",49.2527545,-123.1112205,0,49.2532437170999,-123.110916190651
"190",2014,1,2,11,43,"ENG - Transportation","Neighbourhood Parking and Transportation","Residential Parking Requests","14##","DAVIE ST","West End","1400","1400 DAVIE ST, Vancouver, BC, Canada",49.2836848,-123.1365464,2,49.2839104321544,-123.136294344392
"191",2014,1,2,11,49,"ENG - Solid Waste","Sanitation","Cart - Apartment Recycling","1##","E 7TH AV","Mount Pleasant","100","100 E 7TH AV, Vancouver, BC, Canada",49.2644947,-123.1026489,3,49.2648652475064,-123.102270003502
"192",2014,1,2,11,50,"ENG - Solid Waste","Sanitation","Missed Recycling Pickup","23##","BAYSWATER ST","Kitsilano","2300","2300 BAYSWATER ST, Vancouver, BC, Canada",49.2656628,-123.1709642,3,49.2658781619925,-123.170497256946
"193",2014,1,2,11,50,"ENG - Solid Waste","Sanitation","Abandoned Garbage Pickup - City Property & Parks","4##","COLUMBIA ST","Downtown","400","400 COLUMBIA ST, Vancouver, BC, Canada",49.2812509,-123.102044,3,49.281445974154,-123.101712596407
"194",2014,1,2,11,51,"ENG - Solid Waste","Sanitation","Abandoned Garbage Pickup - City Property & Parks","8##","CARDERO ST","West End","800","800 CARDERO ST, Vancouver, BC, Canada",49.2892361,-123.132405,3,49.2895015103853,-123.132275302369
"195",2014,1,2,11,51,"ENG - Solid Waste","Sanitation","Cart - Garbage","32##","E 2ND AV","Hastings-Sunrise","3200","3200 E 2ND AV, Vancouver, BC, Canada",49.2683351,-123.0362026,3,49.2686817607539,-123.035896748084
"196",2014,1,2,11,53,"ENG - Solid Waste","Sanitation","Recycling Bag Request","78##","CARTIER ST","Marpole","7800","7800 CARTIER ST, Vancouver, BC, Canada",49.2148688,-123.1373944,3,49.215126196066,-123.13696234134
"197",2014,1,2,11,53,"CSG - Licenses & Inspections","Administration Branch","Building Plans Information Request","61##","FRASER ST","Sunset","6100","6100 FRASER ST, Vancouver, BC, Canada",49.2290778,-123.0905451,0,49.2294433351795,-123.090060779138
"198",2014,1,2,11,55,"ENG - Solid Waste","Sanitation","Cart - Garbage","29##","E BROADWAY","Hastings-Sunrise","2900","2900 E BROADWAY, Vancouver, BC, Canada",49.261823,-123.0442657,3,49.2619422938085,-123.044162451502
"199",2014,1,2,11,55,"ENG - Streets","Traffic and Electrical Operations","Street Light - Out","79##","INVERNESS ST","Sunset","7900","7900 INVERNESS ST, Vancouver, BC, Canada",49.2127352,-123.0796951,2,49.2130463313674,-123.079557749772
"200",2014,1,2,11,58,"ENG - Solid Waste","Sanitation","Cart - Green (Yard Trimmings and Food Scraps)","2##","E 55TH AV","Sunset","200","200 E 55TH AV, Vancouver, BC, Canada",49.2200051,-123.1015814,3,49.2202032624563,-123.101455415549
"201",2014,1,2,11,58,"ENG - Solid Waste","Sanitation","Missed Garbage Pickup","31##","E 5TH AV","Hastings-Sunrise","3100","3100 E 5TH AV, Vancouver, BC, Canada",49.2655851,-123.038758,3,49.2657679348899,-123.038368523187
"202",2014,1,2,11,59,"PRB - Planning and Operations","Street Trees","Street Tree Work Request SR","28##","W 3RD AV","Kitsilano","2800","2800 W 3RD AV, Vancouver, BC, Canada",49.2691151,-123.1685022,2,49.2694744411661,-123.168270892833
"203",2014,1,2,12,0,"ENG - Solid Waste","Sanitation","Missed Recycling Pickup","27##","WATERLOO ST","Kitsilano","2700","2700 WATERLOO ST, Vancouver, BC, Canada",49.2623075,-123.1797144,3,49.2624473327035,-123.179311380085
"204",2014,1,2,12,1,"ENG - Water & Sewer","Water Operations","Water Hydrant Issue","1##","E 58TH AV","Sunset","100","100 E 58TH AV, Vancouver, BC, Canada",49.2175108,-123.1040659,4,49.217848078081,-123.10390013404
"205",2014,1,2,12,4,"ENG - Solid Waste","Sanitation","Recycling Bag Request","26##","E 40TH AV","Renfrew-Collingwood","2600","2600 E 40TH AV, Vancouver, BC, Canada",49.2336497,-123.0534871,3,49.2341379594812,-123.053369792717
"206",2014,1,2,12,5,"ENG - Solid Waste","Sanitation","Recycling Box Request","26##","E 40TH AV","Renfrew-Collingwood","2600","2600 E 40TH AV, Vancouver, BC, Canada",49.2336497,-123.0534871,3,49.2339518693575,-123.053201983583
"207",2014,1,2,12,6,"ENG - Solid Waste","Sanitation","Recycling Bag Request","33##","E 1ST AV","Hastings-Sunrise","3300","3300 E 1ST AV, Vancouver, BC, Canada",49.2692551,-123.0334498,3,49.2697018784562,-123.033118003402
"208",2014,1,2,12,6,"ENG - Solid Waste","Sanitation","Cart - Garbage","15##","E 54TH AV","Victoria-Fraserview","1500","1500 E 54TH AV, Vancouver, BC, Canada",49.2202851,-123.0744627,3,49.2205718105896,-123.073980166542
"209",2014,1,2,12,7,"ENG - Solid Waste","Sanitation","Missed Garbage Pickup","27##","W 15TH AV","Kitsilano","2700","2700 W 15TH AV, Vancouver, BC, Canada",49.2584951,-123.1666425,3,49.2586812154675,-123.16654029272
"210",2014,1,2,12,7,"CSG - Licenses & Inspections","Administration Branch","Secondary Suite Information Request","72##","DUMFRIES ST","Victoria-Fraserview","7200","7200 DUMFRIES ST, Vancouver, BC, Canada",49.2190506,-123.0752239,0,49.2193428239473,-123.074770920597
"211",2014,1,2,12,7,"ENG - Solid Waste","Sanitation","Missed Garbage Pickup","8##","VICTORIA DRIVE","Grandview-Woodland","800","800 VICTORIA DRIVE, Vancouver, BC, Canada",49.2774163,-123.0654951,3,49.2777577488113,-123.065083244771
"212",2014,1,2,12,8,"ENG - Solid Waste","Sanitation","Cart - Garbage","23##","E 51ST AV","Victoria-Fraserview","2300","2300 E 51ST AV, Vancouver, BC, Canada",49.2224951,-123.0589291,3,49.2228414433148,-123.058543354953
"213",2014,1,2,12,8,"ENG - Solid Waste","Sanitation","Cart - Garbage","31##","GRANT ST","Hastings-Sunrise","3100","3100 GRANT ST, Vancouver, BC, Canada",49.2712251,-123.03892,3,49.2716939362051,-123.03863021971
"214",2014,1,2,12,9,"ENG - Solid Waste","Sanitation","Cart - Green (Yard Trimmings and Food Scraps)","31##","GRANT ST","Hastings-Sunrise","3100","3100 GRANT ST, Vancouver, BC, Canada",49.2712251,-123.03892,3,49.2716855302848,-123.038644573761
"215",2014,1,2,12,9,"ENG - Solid Waste","Sanitation","Abandoned Garbage Pickup - City Property & Parks","11##","LAURIER AV","Shaughnessy","1100","1100 LAURIER AV, Vancouver, BC, Canada",49.2506151,-123.1300107,3,49.2510697017121,-123.129561187738
"216",2014,1,2,12,9,"ENG - Solid Waste","Sanitation","Missed Garbage Pickup","8##","VICTORIA DRIVE","Grandview-Woodland","800","800 VICTORIA DRIVE, Vancouver, BC, Canada",49.2774163,-123.0654951,3,49.2776168430079,-123.065264900621
"217",2014,1,2,12,10,"ENG - Solid Waste","Sanitation","Cart - Green (Yard Trimmings and Food Scraps)","23##","E 51ST AV","Victoria-Fraserview","2300","2300 E 51ST AV, Vancouver, BC, Canada",49.2224951,-123.0589291,3,49.2227737560177,-123.058815011012
"218",2014,1,2,12,12,"CSG - Licenses","Animal Control","Lost Pets Case","66##","ADERA ST","Kerrisdale","6600","6600 ADERA ST, Vancouver, BC, Canada",49.2260895,-123.1433135,5,49.2264787540782,-123.143181807495
"219",2014,1,2,12,12,"ENG - Solid Waste","Sanitation","Parks Litter Can or Cart Request","66##","COMMERCIAL ST","Victoria-Fraserview","6600","6600 COMMERCIAL ST, Vancouver, BC, Canada",49.2241914,-123.0688247,3,49.2245379683707,-123.068368266956
"220",2014,1,2,12,12,"ENG - Solid Waste","Sanitation","Cart - Garbage","68##","YEW ST","Kerrisdale","6800","6800 YEW ST, Vancouver, BC, Canada",49.2239206,-123.1588118,3,49.2243178270893,-123.15858072768
"221",2014,1,2,12,13,"ENG - Solid Waste","Sanitation","Missed Garbage Pickup","26##","W 6TH AV","Kitsilano","2600","2600 W 6TH AV, Vancouver, BC, Canada",49.2664651,-123.1647707,3,49.2667424604218,-123.164334273461
"222",2014,1,2,12,14,"CSG - Licenses","Animal Control","Dead Animal Pickup Case","66##","ADERA ST","Kerrisdale","6600","6600 ADERA ST, Vancouver, BC, Canada",49.2260895,-123.1433135,5,49.2263967857908,-123.14291845332
"223",2014,1,2,12,15,"Public Safety - Fire","Prevention","Fire Reinspection Request for Firehall","34##","OAK ST","Shaughnessy","3400","3400 OAK ST, Vancouver, BC, Canada",49.2551643,-123.1271152,0,49.2554081807428,-123.126738671575
"224",2014,1,2,12,15,"ENG - Streets","Streets Operations","Street - Surface Water Flooding","Intersection","COURTENAY ST and W 10TH AV","West Point Grey","Intersection"," COURTENAY ST and W 10TH AV, Vancouver, BC, Canada",49.26371,-123.20007,2,49.2641577820318,-123.199943781818
"225",2014,1,2,12,18,"ENG - Streets","Streets Operations","Street - Surface Water Flooding","35##","W 35TH AV","Dunbar Southlands","3500","3500 W 35TH AV, Vancouver, BC, Canada",49.2403151,-123.1821766,2,49.2405327340245,-123.181728582567
"226",2014,1,2,12,20,"ENG - Solid Waste","Sanitation","Cart - Garbage","27##","E 46TH AV","Killarney","2700","2700 E 46TH AV, Vancouver, BC, Canada",49.2283551,-123.0514397,3,49.2285024278112,-123.051244298706
"227",2014,1,2,12,22,"ENG - Water & Sewer","Sewers Operations","Sewer Pipe Inquiries","45##","GOTHARD ST","Renfrew-Collingwood","4500","4500 GOTHARD ST, Vancouver, BC, Canada",49.2443814,-123.0511089,2,49.2445901790219,-123.050784771223
"228",2014,1,2,12,23,"PRB - Planning and Operations","Vegetation","Vegetation Maintenance SR","Intersection","BURRARD ST and HARWOOD ST","Downtown","Intersection"," BURRARD ST and HARWOOD ST, Vancouver, BC, Canada",49.27765,-123.13131,5,49.2780948679843,-123.130978377189
"229",2014,1,2,12,23,"ENG - Streets","Traffic and Electrical Operations","Street Light - Out","6##","UNION ST","Strathcona","600","600 UNION ST, Vancouver, BC, Canada",49.2773547,-123.0913305,2,49.2775963008125,-123.090975150768
"230",2014,1,2,12,24,"ENG - Streets","Traffic and Electrical Operations","Street Light - Out","800"," - 899 W 70TH AV","Marpole","800","800  - 899 W 70TH AV, Vancouver, BC, Canada",49.2082451,-123.1243601,2,49.2086136672692,-123.123913090522
"231",2014,1,2,12,25,"ENG - Streets","Streets Operations","Street - Repair","600"," - 699 DRAKE ST","Downtown","600","600  - 699 DRAKE ST, Vancouver, BC, Canada",49.2753299,-123.12751,2,49.2758211508668,-123.127038051855
"232",2014,1,2,12,26,"CSG - Licenses","License Office","Licence Payment Request Case","35##","POINT GREY ROAD","Kitsilano","3500","3500 POINT GREY ROAD, Vancouver, BC, Canada",49.2718554,-123.1817536,0,49.2721668252324,-123.181479974536
"233",2014,1,2,12,29,"CSG - Inspections","Building","Building Inspection Cancellation Case","60##","BALSAM ST","Kerrisdale","6000","6000 BALSAM ST, Vancouver, BC, Canada",49.2320719,-123.1611193,0,49.2322690846654,-123.160855127749
"234",2014,1,2,12,32,"CSG - Licenses","License Office","Licence Payment Request Case","15##","HORNBY ST","Downtown","1500","1500 HORNBY ST, Vancouver, BC, Canada",49.2751694,-123.1328557,0,49.2752996253628,-123.132607312743
"235",2014,1,2,12,33,"CSG - Licenses","License Office","Licence Payment Request Case","26##","YUKON ST","Mount Pleasant","2600","2600 YUKON ST, Vancouver, BC, Canada",49.26217,-123.1128251,0,49.2625390405389,-123.112580891982
"236",2014,1,2,12,33,"ENG - Solid Waste","Sanitation","Recycling Box Request","20##","E 3RD AV","Grandview-Woodland","2000","2000 E 3RD AV, Vancouver, BC, Canada",49.2676151,-123.0636193,3,49.2680238476307,-123.063316541661
"237",2014,1,2,12,34,"ENG - Solid Waste","Sanitation","Recycling Bag Request","20##","E 3RD AV","Grandview-Woodland","2000","2000 E 3RD AV, Vancouver, BC, Canada",49.2676151,-123.0636193,3,49.2678419145351,-123.063489411684
"238",2014,1,2,12,35,"Business Planning & Services","311 Contact Centre","Citizen Feedback","13##","ARBUTUS ST","Kitsilano","1300","1300 ARBUTUS ST, Vancouver, BC, Canada",49.2745,-123.1523851,0,49.2748101043988,-123.152222498973
"239",2014,1,2,12,37,"PRB - Planning and Operations","Street Trees","Street Tree Work Request SR","2##","E 64TH AV","Sunset","200","200 E 64TH AV, Vancouver, BC, Canada",49.2125643,-123.1018905,2,49.2129095713467,-123.101552741228
"240",2014,1,2,12,37,"ENG - Solid Waste","Sanitation","Cart - Garbage","36##","E 27TH AV","Renfrew-Collingwood","3600","3600 E 27TH AV, Vancouver, BC, Canada",49.2460851,-123.0260189,3,49.2465716341597,-123.025673578876
"241",2014,1,2,12,39,"CSG - Licenses","License Office","Licence Payment Request Case","7##","W 66TH AV","Marpole","700","700 W 66TH AV, Vancouver, BC, Canada",49.2110051,-123.1204301,0,49.211144969992,-123.120151078906
"242",2014,1,2,12,41,"ENG - Solid Waste","Sanitation","Cart - Garbage","34##","TANNER ST","Renfrew-Collingwood","3400","3400 TANNER ST, Vancouver, BC, Canada",49.2444687,-123.031759,3,49.2448019452126,-123.031559175149
"243",2014,1,2,12,43,"ENG - Streets","Traffic and Electrical Operations","Street Light - Out","2600"," - 2699 E 22ND AV","Renfrew-Collingwood","2600","2600  - 2699 E 22ND AV, Vancouver, BC, Canada",49.2504951,-123.0520094,2,49.2508461908564,-123.051535425234
"244",2014,1,2,12,44,"ENG - Solid Waste","Sanitation","Cart - Green (Yard Trimmings and Food Scraps)","34##","TANNER ST","Renfrew-Collingwood","3400","3400 TANNER ST, Vancouver, BC, Canada",49.2444687,-123.031759,3,49.2449339992367,-123.031569883062
"245",2014,1,2,12,45,"ENG - Streets","Traffic and Electrical Operations","Street Light - Out","2400"," - 2499 E 22ND AV","Renfrew-Collingwood","2400","2400  - 2499 E 22ND AV, Vancouver, BC, Canada",49.2504951,-123.0564398,2,49.2509656941394,-123.056332254295
"246",2014,1,2,12,46,"ENG - Streets","Streets Operations","Street - Surface Water Flooding","2700"," - 2799 DUKE ST","","2700","2700  - 2799 DUKE ST, Vancouver, BC, Canada",49.2391004,-123.0501376,2,49.239358883158,-123.049982504857
"247",2014,1,2,12,47,"ENG - Solid Waste","Solid Waste Management","Illegal Dumping/Abandoned Garbage Pickup","61##","FRASER ST","Sunset","6100","6100 FRASER ST, Vancouver, BC, Canada",49.2290778,-123.0905451,3,49.2292113295053,-123.090224312015
"248",2014,1,2,12,47,"ENG - Streets","Traffic and Electrical Operations","Street Light - Out","3700"," - 3799 PENTICTON ST","Renfrew-Collingwood","3700","3700  - 3799 PENTICTON ST, Vancouver, BC, Canada",49.2514436,-123.0520851,2,49.2519314357547,-123.051683916605
"249",2014,1,2,12,49,"ENG - Solid Waste","Sanitation","Street Cleaning & Debris Pickup","30##","W 10TH AV","Kitsilano","3000","3000 W 10TH AV, Vancouver, BC, Canada",49.2631351,-123.1720963,2,49.2636236369377,-123.171922980574
"250",2014,1,2,12,50,"ENG - Solid Waste","Sanitation","Abandoned Garbage Pickup - City Property & Parks","18##","E HASTINGS ST","Grandview-Woodland","1800","1800 E HASTINGS ST, Vancouver, BC, Canada",49.2810646,-123.0679732,3,49.2814470752045,-123.06781906678
"251",2014,1,2,12,50,"ENG - Solid Waste","Sanitation","Abandoned Garbage Pickup - City Property & Parks","15##","POWELL ST","Grandview-Woodland","1500","1500 POWELL ST, Vancouver, BC, Canada",49.2831962,-123.0737542,3,49.2833568980418,-123.073368859444
"252",2014,1,2,12,50,"ENG - Solid Waste","Sanitation","Cart - Green (Yard Trimmings and Food Scraps)","16##","E 34TH AV","Kensington-Cedar Cottage","1600","1600 E 34TH AV, Vancouver, BC, Canada",49.2392003,-123.0727178,3,49.2396024355959,-123.072267984006
"253",2014,1,2,12,50,"ENG - Solid Waste","Sanitation","Cart - Garbage","27##","OXFORD ST","Hastings-Sunrise","2700","2700 OXFORD ST, Vancouver, BC, Canada",49.2855751,-123.0490493,3,49.2858765402438,-123.048724968221
"254",2014,1,2,12,50,"ENG - Solid Waste","Sanitation","Cart - Apartment Recycling","22##","KINGSWAY","Kensington-Cedar Cottage","2200","2200 KINGSWAY, Vancouver, BC, Canada",49.2433634,-123.0617175,3,49.2437770279844,-123.061403242814
"255",2014,1,2,12,51,"ENG - Solid Waste","Sanitation","Abandoned Garbage Pickup - City Property & Parks","15##","POWELL ST","Grandview-Woodland","1500","1500 POWELL ST, Vancouver, BC, Canada",49.2831962,-123.0737542,3,49.2835100225295,-123.07351222515
"256",2014,1,2,12,52,"ENG - Streets","Traffic and Electrical Operations","Street Light - Out","56##","BALSAM ST","Arbutus Ridge","5600","5600 BALSAM ST, Vancouver, BC, Canada",49.2355431,-123.1611051,2,49.2359802365174,-123.160943883892
"257",2014,1,2,12,54,"ENG - Solid Waste","Sanitation","Cart - Garbage","80##","HEATHER ST","Marpole","8000","8000 HEATHER ST, Vancouver, BC, Canada",49.2128899,-123.1238183,3,49.2131384015578,-123.123486038366
"258",2014,1,2,12,56,"ENG - Streets","Traffic and Electrical Operations","Sign - Repair","Intersection","W 16TH AV and WATERLOO ST","Dunbar Southlands","Intersection"," W 16TH AV and WATERLOO ST, Vancouver, BC, Canada",49.25794,-123.18007,0,49.2583894679227,-123.17982378548
"259",2014,1,2,12,56,"ENG - Solid Waste","Sanitation","Cart - Garbage","16##","E 34TH AV","Kensington-Cedar Cottage","1600","1600 E 34TH AV, Vancouver, BC, Canada",49.2392003,-123.0727178,3,49.239517957881,-123.072383007522
"260",2014,1,2,12,57,"CSG - Licenses","License Office","Gone Out of Business Case","64##","EAST BOULEVARD","Kerrisdale","6400","6400 EAST BOULEVARD, Vancouver, BC, Canada",49.2280318,-123.154773,0,49.2282679727821,-123.154370608088
"261",2014,1,2,12,59,"ENG - Solid Waste","Sanitation","Recycling Bag Request","35##","W 28TH AV","Dunbar Southlands","3500","3500 W 28TH AV, Vancouver, BC, Canada",49.2469551,-123.1821004,3,49.247413412145,-123.181889455798
"262",2014,1,2,13,1,"ENG - Solid Waste","Sanitation","Cart - Garbage","19##","UPLAND DRIVE","Victoria-Fraserview","1900","1900 UPLAND DRIVE, Vancouver, BC, Canada",49.2179347,-123.0678131,3,49.2183942005254,-123.067685626111
"263",2014,1,2,13,2,"CSG - Licenses","License Office","Licence Payment Request Case","17##","ROBSON ST","West End","1700","1700 ROBSON ST, Vancouver, BC, Canada",49.290456,-123.1341308,0,49.2909552246733,-123.133708635171
"264",2014,1,2,13,2,"ENG - Solid Waste","Sanitation","Cart - Green (Yard Trimmings and Food Scraps)","19##","UPLAND DRIVE","Victoria-Fraserview","1900","1900 UPLAND DRIVE, Vancouver, BC, Canada",49.2179347,-123.0678131,3,49.2181693295415,-123.067447579277
"265",2014,1,2,13,3,"Business Planning & Services","311 Contact Centre","Citizen Feedback","60##","CULLODEN ST","Sunset","6000","6000 CULLODEN ST, Vancouver, BC, Canada",49.2298623,-123.078271,0,49.2301441538986,-123.077788921104
"266",2014,1,2,13,4,"ENG - Solid Waste","Sanitation","Cart - Garbage","13##","E 18TH AV","Kensington-Cedar Cottage","1300","1300 E 18TH AV, Vancouver, BC, Canada",49.2543351,-123.0776414,3,49.2545277052496,-123.077534635616
"267",2014,1,2,13,5,"ENG - Solid Waste","Sanitation","Cart - Green (Yard Trimmings and Food Scraps)","13##","E 18TH AV","Kensington-Cedar Cottage","1300","1300 E 18TH AV, Vancouver, BC, Canada",49.2543351,-123.0776414,3,49.2548017394695,-123.077384793924
"268",2014,1,2,13,5,"Business Planning & Services","311 Contact Centre","Citizen Feedback","5900"," - 6099 CULLODEN ST","Sunset","5900","5900  - 6099 CULLODEN ST, Vancouver, BC, Canada",49.2306384,-123.0782442,0,49.230822721756,-123.077840826636
"269",2014,1,2,13,5,"Business Planning & Services","311 Contact Centre","Citizen Feedback","3500"," - 3599 W 22ND AV","Dunbar Southlands","3500","3500  - 3599 W 22ND AV, Vancouver, BC, Canada",49.2527451,-123.1820854,0,49.2528560926132,-123.18171378631
"270",2014,1,2,13,5,"ENG - Solid Waste","Sanitation","Cart - Green (Yard Trimmings and Food Scraps)","5##","NANAIMO ST","Hastings-Sunrise","500","500 NANAIMO ST, Vancouver, BC, Canada",49.2801459,-123.0564351,3,49.2803926488006,-123.05624404359
"271",2014,1,2,13,6,"ENG - Streets","Traffic and Electrical Operations","Street Light - Out","26##","OXFORD ST","Hastings-Sunrise","2600","2600 OXFORD ST, Vancouver, BC, Canada",49.2855751,-123.0516693,2,49.2857578084546,-123.051543923088
"272",2014,1,2,13,6,"CSG - Licenses & Inspections","Administration Branch","Building Plans Information Request","16##","W 2ND AV","Fairview","1600","1600 W 2ND AV, Vancouver, BC, Canada",49.2695751,-123.1410228,0,49.2698163411809,-123.140671831008
"273",2014,1,2,13,11,"ENG - Solid Waste","Sanitation","Cart - Garbage","84##","SHAUGHNESSY ST","Marpole","8400","8400 SHAUGHNESSY ST, Vancouver, BC, Canada",49.2098919,-123.1286341,3,49.2100288011694,-123.128439513418
"274",2014,1,2,13,13,"CSG - Inspections","Property Use","PUI Noise General Inquiry Case","4##","DAVIE ST","Downtown","400","400 DAVIE ST, Vancouver, BC, Canada",49.2752445,-123.1235256,1,49.2754606062877,-123.123137130129
"275",2014,1,2,13,13,"ENG - Solid Waste","Sanitation","Cart - Green (Yard Trimmings and Food Scraps)","84##","SHAUGHNESSY ST","Marpole","8400","8400 SHAUGHNESSY ST, Vancouver, BC, Canada",49.2098919,-123.1286341,3,49.210380731732,-123.128218038487
"276",2014,1,2,13,13,"ENG - Solid Waste","Sanitation","Cart - Garbage","29##","KITCHENER ST","Hastings-Sunrise","2900","2900 KITCHENER ST, Vancouver, BC, Canada",49.2721551,-123.0439799,3,49.272645689876,-123.043716753062
"277",2014,1,2,13,15,"Interdepartmental Initiatives","Snow Angel Program","Snow Angel Program - Individual Volunteer","75##","ELLIOTT ST","Victoria-Fraserview","7500","7500 ELLIOTT ST, Vancouver, BC, Canada",49.2163133,-123.0534619,2,49.2167011633682,-123.053330484578
"278",2014,1,2,13,16,"ENG - Streets","Traffic and Electrical Operations","Street Light - Out","14##","QUEBEC ST","Downtown","1400","1400 QUEBEC ST, Vancouver, BC, Canada",49.2736051,-123.1019349,2,49.2740227965156,-123.101610257867
"279",2014,1,2,13,16,"ENG - Solid Waste","Sanitation","Missed Garbage Pickup","32##","W 16TH AV","Kitsilano","3200","3200 W 16TH AV, Vancouver, BC, Canada",49.2575651,-123.1763125,3,49.2579897513139,-123.175995224196
"280",2014,1,2,13,17,"ENG - Solid Waste","Sanitation","Recycling Bag Request","29##","KITCHENER ST","Hastings-Sunrise","2900","2900 KITCHENER ST, Vancouver, BC, Canada",49.2721551,-123.0439799,3,49.272368867417,-123.043769087161
"281",2014,1,2,13,18,"ENG - Streets","Traffic and Electrical Operations","Street Light - New/Relocation","Intersection","E BROADWAY and VICTORIA DRIVE","Grandview-Woodland","Intersection"," E BROADWAY and VICTORIA DRIVE, Vancouver, BC, Canada",49.26223,-123.06594,2,49.2623766612878,-123.065682875438
"282",2014,1,2,13,24,"ENG - Solid Waste","Sanitation","Cart - Garbage","17##","E 33RD AV","Kensington-Cedar Cottage","1700","1700 E 33RD AV, Vancouver, BC, Canada",49.2400031,-123.0711413,3,49.2402700419195,-123.071002726249
"283",2014,1,2,13,24,"ENG - Solid Waste","Sanitation","Recycling Bag Request","27##","W 23RD AV","Arbutus Ridge","2700","2700 W 23RD AV, Vancouver, BC, Canada",49.2517451,-123.1654407,3,49.2520724429226,-123.165114078629
"284",2014,1,2,13,24,"ENG - Streets","Traffic and Electrical Operations","Street Light - Out","41##","W 15TH AV","West Point Grey","4100","4100 W 15TH AV, Vancouver, BC, Canada",49.2589751,-123.1973107,2,49.2594662968232,-123.196994537168
"285",2014,1,2,13,26,"CSG - Licenses","License Office","Gone Out of Business Case","58##","RUPERT ST","Killarney","5800","5800 RUPERT ST, Vancouver, BC, Canada",49.2309628,-123.0429851,0,49.2311112897741,-123.042665684652
"286",2014,1,2,13,28,"Public Safety - Fire","Prevention","FPB_General Inquiry Case","10##","W PENDER ST","Downtown","1000","1000 W PENDER ST, Vancouver, BC, Canada",49.2865378,-123.1180675,0,49.2866753805694,-123.117631909837
"287",2014,1,2,13,29,"CSG - Licenses","License Office","Licence Payment Request Case","35##","MONMOUTH AV","Renfrew-Collingwood","3500","3500 MONMOUTH AV, Vancouver, BC, Canada",49.2402761,-123.0281332,0,49.2407373041483,-123.027703355032
"288",2014,1,2,13,30,"PRB - Administration","General Park Board Information","PRB_Park Ranger SR","10##","LAGOON DRIVE","","1000","1000 LAGOON DRIVE, Vancouver, BC, Canada",49.2927782,-123.141846,0,49.2931004102143,-123.141415270071
"289",2014,1,2,13,31,"ENG - Solid Waste","Sanitation","Cart - Garbage","34##","CYPRESS ST","Shaughnessy","3400","3400 CYPRESS ST, Vancouver, BC, Canada",49.2551522,-123.148177,3,49.2553789665435,-123.147866631174
"290",2014,1,2,13,33,"ENG - Solid Waste","Sanitation","Cart - Garbage","8##","E 26TH AV","Kensington-Cedar Cottage","800","800 E 26TH AV, Vancouver, BC, Canada",49.2474347,-123.0876091,3,49.2478287683243,-123.087501033
"291",2014,1,2,13,33,"CSG - Licenses","License Office","Licence Payment Request Case","35##","MONMOUTH AV","Renfrew-Collingwood","3500","3500 MONMOUTH AV, Vancouver, BC, Canada",49.2402761,-123.0281332,0,49.2406838136339,-123.027685581032
"292",2014,1,2,13,34,"ENG - Solid Waste","Sanitation","Cart - Green (Yard Trimmings and Food Scraps)","34##","CYPRESS ST","Shaughnessy","3400","3400 CYPRESS ST, Vancouver, BC, Canada",49.2551522,-123.148177,3,49.2553349783821,-123.147838128233
"293",2014,1,2,13,36,"ENG - Transportation","Neighbourhood Parking and Transportation","Residential Parking Requests","24##","W 1ST AV","Kitsilano","2400","2400 W 1ST AV, Vancouver, BC, Canada",49.2707451,-123.1599743,2,49.270931293944,-123.159671096501
"294",2014,1,2,13,38,"CSG - Licenses","Animal Control","Lost Pets Case","12##","RAYMUR AV","Strathcona","1200","1200 RAYMUR AV, Vancouver, BC, Canada",49.27397,-123.08235,5,49.2741711013393,-123.081968144893
"295",2014,1,2,13,39,"ENG - Streets","Traffic and Electrical Operations","Street Light - Out","29##","E 42ND AV","Killarney","2900","2900 E 42ND AV, Vancouver, BC, Canada",49.2319151,-123.045715,2,49.2321249275943,-123.045265020939
"296",2014,1,2,13,40,"ENG - Solid Waste","Sanitation","Abandoned Garbage Pickup - City Property & Parks","40##","FLEMING ST","Kensington-Cedar Cottage","4000","4000 FLEMING ST, Vancouver, BC, Canada",49.2496118,-123.0722441,3,49.2499718912108,-123.072125510444
"297",2014,1,2,13,42,"ENG - Streets","Streets Operations","Sidewalk - Repair","85##","GRANVILLE ST","Marpole","8500","8500 GRANVILLE ST, Vancouver, BC, Canada",49.2094376,-123.1402685,2,49.2095487229475,-123.14009552211
"298",2014,1,2,13,43,"ENG - Solid Waste","Sanitation","Abandoned Garbage Pickup - City Property & Parks","40##","FLEMING ST","Kensington-Cedar Cottage","4000","4000 FLEMING ST, Vancouver, BC, Canada",49.2496118,-123.0722441,3,49.2499418395544,-123.071970829037
"299",2014,1,2,13,43,"ENG - Solid Waste","Sanitation","Missed Garbage Pickup","32##","CLARK DRIVE","Kensington-Cedar Cottage","3200","3200 CLARK DRIVE, Vancouver, BC, Canada",49.2561183,-123.0776951,3,49.2564535878892,-123.077541332753
"300",2014,1,2,13,47,"ENG - Solid Waste","Sanitation","Cart - Apartment Recycling","20##","KINGSWAY","Kensington-Cedar Cottage","2000","2000 KINGSWAY, Vancouver, BC, Canada",49.2449516,-123.0650509,3,49.245227248643,-123.064634734689
"302",2014,1,2,13,55,"CSG - Inspections","Building","Building Inspection Cancellation Case","1##","W 13TH AV","Mount Pleasant","100","100 W 13TH AV, Vancouver, BC, Canada",49.25914,-123.10723,0,49.2594271152435,-123.106978473246
"303",2014,1,2,13,56,"ENG - Solid Waste","Sanitation","Missed Garbage Pickup","43##","WATSON ST","Riley Park","4300","4300 WATSON ST, Vancouver, BC, Canada",49.2463852,-123.100236,3,49.2466315509494,-123.100123396868
"304",2014,1,2,13,59,"ENG - Streets","Traffic and Electrical Operations","Street Light - Out","100"," - 199 W KING EDWARD AV","Riley Park","100","100  - 199 W KING EDWARD AV, Vancouver, BC, Canada",49.2487651,-123.107673,2,49.2491590033144,-123.107518022577
"305",2014,1,2,14,0,"ENG - Solid Waste","Sanitation","Recycling Box Request","38##","W 22ND AV","Dunbar Southlands","3800","3800 W 22ND AV, Vancouver, BC, Canada",49.2527451,-123.1882818,3,49.2528626840775,-123.187917416642
"306",2014,1,2,14,0,"ENG - Streets","Traffic and Electrical Operations","Street Light - Out","Intersection","BALSAM ST and W 18TH AV","Arbutus Ridge","Intersection"," BALSAM ST and W 18TH AV, Vancouver, BC, Canada",49.25633,-123.16035,2,49.2566237342005,-123.160242881127
"307",2014,1,2,14,0,"ENG - Solid Waste","Sanitation","Missed Yard Trimmings and Food Scraps Pickup","38##","W 14TH AV","West Point Grey","3800","3800 W 14TH AV, Vancouver, BC, Canada",49.2597151,-123.1881528,3,49.2599447819849,-123.18766071535
"308",2014,1,2,14,1,"ENG - Solid Waste","Sanitation","Recycling Bag Request","38##","W 22ND AV","Dunbar Southlands","3800","3800 W 22ND AV, Vancouver, BC, Canada",49.2527451,-123.1882818,3,49.2528887911439,-123.187884033315
"309",2014,1,2,14,2,"ENG - Solid Waste","Sanitation","Cart - Garbage","3##","E 62ND AV","Sunset","300","300 E 62ND AV, Vancouver, BC, Canada",49.2142069,-123.1001489,3,49.2143817892679,-123.10004283528
"310",2014,1,2,14,2,"ENG - Streets","Traffic and Electrical Operations","Street Light - Out","200"," - 399 W KING EDWARD AV","Riley Park","200","200  - 399 W KING EDWARD AV, Vancouver, BC, Canada",49.248744,-123.1102089,2,49.2489477868874,-123.109862112016
"311",2014,1,2,14,4,"ENG - Streets","Streets Operations","Streets - General Issues","3500"," - 3599 W 14TH AV","Kitsilano","3500","3500  - 3599 W 14TH AV, Vancouver, BC, Canada",49.2596351,-123.1822105,2,49.2598315458196,-123.182030829591
"312",2014,1,2,14,4,"ENG - Solid Waste","Sanitation","Cart - Green (Yard Trimmings and Food Scraps)","3##","E 62ND AV","Sunset","300","300 E 62ND AV, Vancouver, BC, Canada",49.2142069,-123.1001489,3,49.2143192161238,-123.09968407774
"313",2014,1,2,14,4,"ENG - Solid Waste","Sanitation","Cart - Green (Yard Trimmings and Food Scraps)","47##","BRUCE ST","Kensington-Cedar Cottage","4700","4700 BRUCE ST, Vancouver, BC, Canada",49.2427719,-123.0691378,3,49.2429110749047,-123.068826804951
"314",2014,1,2,14,4,"ENG - Solid Waste","Sanitation","Cart - Garbage","24##","POINT GREY ROAD","Kitsilano","2400","2400 POINT GREY ROAD, Vancouver, BC, Canada",49.27266,-123.1598349,3,49.2728733230454,-123.159357180081
"315",2014,1,2,14,4,"ENG - Solid Waste","Sanitation","Missed Garbage Pickup","13##","W 12TH AV","Fairview","1300","1300 W 12TH AV, Vancouver, BC, Canada",49.2605651,-123.1340027,3,49.261055129639,-123.133552455843
"316",2014,1,2,14,5,"ENG - Solid Waste","Sanitation","Missed Garbage Pickup","27##","HEMLOCK ST","Fairview","2700","2700 HEMLOCK ST, Vancouver, BC, Canada",49.2615417,-123.1360351,3,49.2618282055606,-123.135810972079
"317",2014,1,2,14,5,"Public Safety - Fire","Prevention","Fire Reinspection Request for Firehall","11##","VICTORIA DRIVE","Grandview-Woodland","1100","1100 VICTORIA DRIVE, Vancouver, BC, Canada",49.2747089,-123.0655251,0,49.2750661901499,-123.065309866262
"318",2014,1,2,14,6,"ENG - Solid Waste","Sanitation","Recycling Bag Request","47##","BRUCE ST","Kensington-Cedar Cottage","4700","4700 BRUCE ST, Vancouver, BC, Canada",49.2427719,-123.0691378,3,49.2432273580523,-123.068737029563
"319",2014,1,2,14,7,"Business Planning & Services","311 Contact Centre","Citizen Feedback","27##","HEMLOCK ST","Fairview","2700","2700 HEMLOCK ST, Vancouver, BC, Canada",49.2615417,-123.1360351,0,49.2619697809872,-123.135561713045
"320",2014,1,2,14,7,"CSG - Licenses","License Office","Licence Payment Request Case","5##","BURRARD ST","Downtown","500","500 BURRARD ST, Vancouver, BC, Canada",49.2864999,-123.11779,0,49.286866826515,-123.117351742444
"321",2014,1,2,14,7,"ENG - Solid Waste","Sanitation","Recycling Box Request","47##","BRUCE ST","Kensington-Cedar Cottage","4700","4700 BRUCE ST, Vancouver, BC, Canada",49.2427719,-123.0691378,3,49.2431612759108,-123.068873778598
"322",2014,1,2,14,8,"ENG - Solid Waste","Sanitation","Abandoned Garbage Pickup - City Property & Parks","24##","POINT GREY ROAD","Kitsilano","2400","2400 POINT GREY ROAD, Vancouver, BC, Canada",49.27266,-123.1598349,3,49.2728133401287,-123.159729392636
"323",2014,1,2,14,9,"ENG - Solid Waste","Sanitation","Missed Recycling Pickup","18##","DUNBAR ST","Kitsilano","1800","1800 DUNBAR ST, Vancouver, BC, Canada",49.2702116,-123.1834251,3,49.2703849594545,-123.183161351436
"324",2014,1,2,14,10,"CSG - Licenses","License Office","Licence Payment Request Case","5##","BURRARD ST","Downtown","500","500 BURRARD ST, Vancouver, BC, Canada",49.2864999,-123.11779,0,49.2866494043506,-123.117662679201
"325",2014,1,2,14,10,"CSG - Inspections","Property Use","PUI General Inquiry Case","8##","CAMBIE ST","Downtown","800","800 CAMBIE ST, Vancouver, BC, Canada",49.2779797,-123.1150193,0,49.2784636897962,-123.114600967128
"326",2014,1,2,14,10,"CSG - Licenses","License Office","Gone Out of Business Case","1##","W HASTINGS ST","Downtown","100","100 W HASTINGS ST, Vancouver, BC, Canada",49.2818961,-123.1074143,0,49.282191133142,-123.106991975621
"327",2014,1,2,14,10,"ENG - Solid Waste","Sanitation","Abandoned Garbage Pickup - City Property & Parks","55##","CULLODEN ST","Kensington-Cedar Cottage","5500","5500 CULLODEN ST, Vancouver, BC, Canada",49.2347167,-123.078094,3,49.234930086874,-123.077899764836
"328",2014,1,2,14,11,"ENG - Streets","Traffic and Electrical Operations","Street Light - Out","5100"," - 5299 CAMBIE ST","Riley Park","5100","5100  - 5299 CAMBIE ST, Vancouver, BC, Canada",49.2373983,-123.1164163,2,49.2375219150111,-123.116144181339
"329",2014,1,2,14,14,"ENG - Solid Waste","Sanitation","Cart - Garbage","30##","CHARLES ST","Hastings-Sunrise","3000","3000 CHARLES ST, Vancouver, BC, Canada",49.2731351,-123.041155,3,49.2736299524501,-123.040842926551
"330",2014,1,2,14,15,"ENG - Streets","Streets Operations","Pothole - Repair","27##","MCGILL ST","Hastings-Sunrise","2700","2700 MCGILL ST, Vancouver, BC, Canada",49.2885751,-123.0490793,2,49.2889722766579,-123.048765853128
"331",2014,1,2,14,15,"ENG - Solid Waste","Sanitation","Collection Calendar Mail-Out Request","70##","ELLIOTT ST","Victoria-Fraserview","7000","7000 ELLIOTT ST, Vancouver, BC, Canada",49.2200036,-123.0547717,3,49.2203481934546,-123.054490170951
"332",2014,1,2,14,17,"ENG - Solid Waste","Sanitation","Recycling Box Request","67##","VIVIAN ST","Killarney","6700","6700 VIVIAN ST, Vancouver, BC, Canada",49.2225559,-123.0502748,3,49.2228764154784,-123.049788872311
"333",2014,1,2,14,17,"ENG - Solid Waste","Sanitation","Recycling Bag Request","67##","VIVIAN ST","Killarney","6700","6700 VIVIAN ST, Vancouver, BC, Canada",49.2225559,-123.0502748,3,49.2230187148551,-123.049908542338
"334",2014,1,2,14,20,"ENG - Streets","Streets Operations","Trees and Vegetation Encroachment - City Property","85##","HEATHER ST","Marpole","8500","8500 HEATHER ST, Vancouver, BC, Canada",49.2090631,-123.1239646,5,49.2092876402738,-123.123690785851
"335",2014,1,2,14,26,"CSG - Inspections","Property Use","PUI General Inquiry Case","33##","W 39TH AV","Dunbar Southlands","3300","3300 W 39TH AV, Vancouver, BC, Canada",49.2363151,-123.1789223,0,49.236801344215,-123.178463453736
"336",2014,1,2,14,27,"ENG - Solid Waste","Sanitation","Recycling Bag Request","10##","W 38TH AV","Shaughnessy","1000","1000 W 38TH AV, Vancouver, BC, Canada",49.2366952,-123.1294651,3,49.2371323235399,-123.129223469215
"337",2014,1,2,14,27,"ENG - Solid Waste","Sanitation","Missed Garbage Pickup","11##","DAVIE ST","West End","1100","1100 DAVIE ST, Vancouver, BC, Canada",49.2803518,-123.1313942,3,49.2805964828374,-123.131209608318
"338",2014,1,2,14,28,"ENG - Streets","Streets Operations","Trees and Vegetation Encroachment - City Property","8##","W 70TH AV","Marpole","800","800 W 70TH AV, Vancouver, BC, Canada",49.2082451,-123.1243601,5,49.2085420572079,-123.123999159161
"339",2014,1,2,14,34,"ENG - Solid Waste","Sanitation","Missed Yard Trimmings and Food Scraps Pickup","35##","VIMY CRESCENT","Renfrew-Collingwood","3500","3500 VIMY CRESCENT, Vancouver, BC, Canada",49.2572804,-123.0274951,3,49.2575998992112,-123.027127528705
"340",2014,1,2,14,35,"ENG - Solid Waste","Sanitation","Cart - Apartment Recycling","22##","MCBAIN AV","Arbutus Ridge","2200","2200 MCBAIN AV, Vancouver, BC, Canada",49.2501905,-123.1575784,3,49.2504272234811,-123.157260917568
"341",2014,1,2,14,36,"ENG - Streets","Streets Operations","Street - Surface Water Flooding","20##","E 28TH AV","Kensington-Cedar Cottage","2000","2000 E 28TH AV, Vancouver, BC, Canada",49.2456951,-123.0649025,2,49.2460489716895,-123.064749327421
"342",2014,1,2,14,41,"ENG - Streets","Traffic and Electrical Operations","Street Light - Out","33##","CHURCH ST","Renfrew-Collingwood","3300","3300 CHURCH ST, Vancouver, BC, Canada",49.2345299,-123.035142,2,49.2349080954035,-123.03486106871
"343",2014,1,2,14,42,"CSG - Inspections","Property Use","PUI General Inquiry Case","33##","W 39TH AV","Dunbar Southlands","3300","3300 W 39TH AV, Vancouver, BC, Canada",49.2363151,-123.1789223,0,49.2364452392684,-123.178438218369
"344",2014,1,2,14,43,"ENG - Solid Waste","Sanitation","Abandoned Garbage Pickup - City Property & Parks","14##","E 49TH AV","Victoria-Fraserview","1400","1400 E 49TH AV, Vancouver, BC, Canada",49.2251651,-123.0770733,3,49.2256533880322,-123.076626489341
"345",2014,1,2,14,45,"ENG - Solid Waste","Sanitation","Cart - Garbage","28##","W 16TH AV","Kitsilano","2800","2800 W 16TH AV, Vancouver, BC, Canada",49.2574551,-123.1686335,3,49.2578558889035,-123.168345839776
"346",2014,1,2,14,46,"ENG - Solid Waste","Sanitation","Abandoned Garbage Pickup - City Property & Parks","10##","PACIFIC ST","West End","1000","1000 PACIFIC ST, Vancouver, BC, Canada",49.2773865,-123.1332926,3,49.2776680432833,-123.133140295111
"347",2014,1,2,14,46,"ENG - Solid Waste","Sanitation","Cart - Garbage","7##","E 13TH AV","Mount Pleasant","700","700 E 13TH AV, Vancouver, BC, Canada",49.2586945,-123.0889618,3,49.2590354916268,-123.088656402792
"348",2014,1,2,14,48,"ENG - Solid Waste","Sanitation","Missed Garbage Pickup","44##","W 2ND AV","West Point Grey","4400","4400 W 2ND AV, Vancouver, BC, Canada",49.2711751,-123.2060004,3,49.2713796301742,-123.205619125582
"349",2014,1,2,14,48,"ENG - Streets","Streets Operations","Street - Repair","5##","W 24TH AV","South Cambie","500","500 W 24TH AV, Vancouver, BC, Canada",49.2499535,-123.1155623,2,49.2502403739308,-123.11515816728
"350",2014,1,2,14,54,"CSG - Licenses","License Office","Licence Payment Request Case","15##","HOWE ST","Downtown","1500","1500 HOWE ST, Vancouver, BC, Canada",49.27417,-123.132,0,49.2743929857674,-123.131518203751
"351",2014,1,2,15,2,"ENG - Solid Waste","Sanitation","Missed Yard Trimmings and Food Scraps Pickup","16##","W 60TH AV","Marpole","1600","1600 W 60TH AV, Vancouver, BC, Canada",49.2167151,-123.1436324,3,49.2169957878821,-123.143282923119
"352",2014,1,2,15,5,"ENG - Solid Waste","Sanitation","Abandoned Garbage Pickup - City Property & Parks","12##","HAMILTON ST","Downtown","1200","1200 HAMILTON ST, Vancouver, BC, Canada",49.2746284,-123.1227586,3,49.2749739145994,-123.122602916811
"353",2014,1,2,15,5,"ENG - Transportation","Traffic and Data Management","Traffic & Pedestrian Signal - New","Intersection","FRANKLIN ST and NANAIMO ST","Hastings-Sunrise","Intersection"," FRANKLIN ST and NANAIMO ST, Vancouver, BC, Canada",49.2820899,-123.05655,2,49.2825842122808,-123.05616367456
"354",2014,1,2,15,5,"ENG - Solid Waste","Sanitation","Cart - Green (Yard Trimmings and Food Scraps)","67##","CAMBIE ST","Oakridge","6700","6700 CAMBIE ST, Vancouver, BC, Canada",49.2242398,-123.1162431,3,49.2245136266368,-123.115823749299
"355",2014,1,2,15,7,"ENG - Solid Waste","Sanitation","Cart - Garbage","7##","E KING EDWARD AV","Kensington-Cedar Cottage","700","700 E KING EDWARD AV, Vancouver, BC, Canada",49.2484951,-123.08984,3,49.2489184301432,-123.089485702535
"356",2014,1,2,15,7,"ENG - Transportation","Traffic and Data Management","Traffic & Pedestrian Signal - New","Intersection","FRANKLIN ST and NANAIMO ST","Hastings-Sunrise","Intersection"," FRANKLIN ST and NANAIMO ST, Vancouver, BC, Canada",49.2820899,-123.05655,2,49.2825811027039,-123.056077266793
"357",2014,1,2,15,8,"CSG - Licenses","Animal Control","Animal Control General Inquiry Case","##","E 11TH AV","Mount Pleasant","00","00 E 11TH AV, Vancouver, BC, Canada",49.26049,-123.07065,5,49.2606060566946,-123.070405543741
"358",2014,1,2,15,9,"ENG - Solid Waste","Sanitation","Missed Yard Trimmings and Food Scraps Pickup","69##","MARGUERITE ST","Kerrisdale","6900","6900 MARGUERITE ST, Vancouver, BC, Canada",49.2229949,-123.144908,3,49.223446546996,-123.144657716353
"359",2014,1,2,15,9,"ENG - Solid Waste","Sanitation","Cart - Garbage","46##","CARNARVON ST","Dunbar Southlands","4600","4600 CARNARVON ST, Vancouver, BC, Canada",49.2450232,-123.1727343,3,49.2452888590552,-123.172577250259
"360",2014,1,2,15,10,"ENG - Solid Waste","Sanitation","Missed Garbage Pickup","17##","PENDRELL ST","West End","1700","1700 PENDRELL ST, Vancouver, BC, Canada",49.2868963,-123.1394225,3,49.2872502328908,-123.139272972082
"361",2014,1,2,15,10,"ENG - Solid Waste","Sanitation","Cart - Green (Yard Trimmings and Food Scraps)","46##","CARNARVON ST","Dunbar Southlands","4600","4600 CARNARVON ST, Vancouver, BC, Canada",49.2450232,-123.1727343,3,49.2454906818287,-123.172473939893
"362",2014,1,2,15,11,"CSG - Inspections","Property Use","PUI General Inquiry Case","35##","W 41ST AV","Dunbar Southlands","3500","3500 W 41ST AV, Vancouver, BC, Canada",49.2346351,-123.1822385,0,49.2349659687477,-123.18184133402
"363",2014,1,2,15,11,"ENG - Solid Waste","Sanitation","Missed Yard Trimmings and Food Scraps Pickup","65##","WILTSHIRE ST","Kerrisdale","6500","6500 WILTSHIRE ST, Vancouver, BC, Canada",49.2268618,-123.14634,3,49.2273319821798,-123.145988942853
"364",2014,1,2,15,13,"Business Planning & Services","311 Contact Centre","Citizen Feedback","17##","PENDRELL ST","West End","1700","1700 PENDRELL ST, Vancouver, BC, Canada",49.2868963,-123.1394225,0,49.2870321442886,-123.139223809043
"365",2014,1,2,15,13,"CSG - Licenses","Animal Control","Lost Pets Case","25##","FRANKLIN ST","Hastings-Sunrise","2500","2500 FRANKLIN ST, Vancouver, BC, Canada",49.2819449,-123.0542468,5,49.2823593486361,-123.054068216241
"366",2014,1,2,15,13,"CSG - Licenses","Animal Control","Holding Stray Case","27##","ALMA ST","Kitsilano","2700","2700 ALMA ST, Vancouver, BC, Canada",49.2623993,-123.1857441,5,49.2628147809265,-123.185305632386
"367",2014,1,2,15,14,"ENG - Solid Waste","Sanitation","Parks Litter Can or Cart Request","66##","COMMERCIAL ST","Victoria-Fraserview","6600","6600 COMMERCIAL ST, Vancouver, BC, Canada",49.2241914,-123.0688247,3,49.22462176016,-123.068464940816
"368",2014,1,2,15,15,"ENG - Solid Waste","Sanitation","Missed Garbage Pickup","48##","CONNAUGHT DRIVE","Shaughnessy","4800","4800 CONNAUGHT DRIVE, Vancouver, BC, Canada",49.2422724,-123.142107,3,49.2425148615814,-123.141918889827
"369",2014,1,2,15,17,"ENG - Solid Waste","Sanitation","Missed Garbage Pickup","12##","BURNABY ST","West End","1200","1200 BURNABY ST, Vancouver, BC, Canada",49.2810654,-123.1346486,3,49.2812929896265,-123.134362481236
"370",2014,1,2,15,17,"ENG - Solid Waste","Sanitation","Cart - Green (Yard Trimmings and Food Scraps)","23##","QUAYSIDE COURT","Victoria-Fraserview","2300","2300 QUAYSIDE COURT, Vancouver, BC, Canada",49.2066436,-123.0579581,3,49.2069246800686,-123.057688490705
"371",2014,1,2,15,17,"ENG - Solid Waste","Sanitation","Missed Garbage Pickup","48##","CONNAUGHT DRIVE","Shaughnessy","4800","4800 CONNAUGHT DRIVE, Vancouver, BC, Canada",49.2422724,-123.142107,3,49.2426061108922,-123.141927196538
"372",2014,1,2,15,17,"CSG - Licenses","Animal Control","Animal Control General Inquiry Case","35##","W 41ST AV","Dunbar Southlands","3500","3500 W 41ST AV, Vancouver, BC, Canada",49.2346351,-123.1822385,5,49.2347828450736,-123.1819853155
"373",2014,1,2,15,19,"ENG - Solid Waste","Sanitation","Abandoned Garbage Pickup - City Property & Parks","1##","W HASTINGS ST","Downtown","100","100 W HASTINGS ST, Vancouver, BC, Canada",49.2818961,-123.1074143,3,49.2823763108172,-123.107273958699
"374",2014,1,2,15,19,"Business Planning & Services","311 Contact Centre","Citizen Feedback","16##","NELSON ST","West End","1600","1600 NELSON ST, Vancouver, BC, Canada",49.2873059,-123.1357308,0,49.2878016820511,-123.135523191593
"375",2014,1,2,15,19,"ENG - Solid Waste","Sanitation","Missed Garbage Pickup","13##","W 11TH AV","Fairview","1300","1300 W 11TH AV, Vancouver, BC, Canada",49.2615051,-123.1339934,3,49.2619817988301,-123.133495476512
"376",2014,1,2,15,20,"ENG - Solid Waste","Sanitation","Cart - Apartment Recycling","3##","E CORDOVA ST","Strathcona","300","300 E CORDOVA ST, Vancouver, BC, Canada",49.2820945,-123.0973648,3,49.2824067796841,-123.096942402855
"377",2014,1,2,15,21,"ENG - Solid Waste","Sanitation","Abandoned Garbage Pickup - City Property & Parks","1##","W PENDER ST","Downtown","100","100 W PENDER ST, Vancouver, BC, Canada",49.28096,-123.10846,3,49.2813471099607,-123.108206996857
"378",2014,1,2,15,21,"ENG - Solid Waste","Sanitation","Green Bin Program - Feedback and General Inquiry","35##","W BROADWAY","Kitsilano","3500","3500 W BROADWAY, Vancouver, BC, Canada",49.2641751,-123.1820233,3,49.2642786179118,-123.181570635177
"379",2014,1,2,15,22,"ENG - Solid Waste","Sanitation","Missed Garbage Pickup","15##","MAPLE ST","Kitsilano","1500","1500 MAPLE ST, Vancouver, BC, Canada",49.2723631,-123.1500551,3,49.2728393830218,-123.14976746968
"380",2014,1,2,15,22,"CSG - Licenses","License Office","Licence Payment Request Case","2##","E 16TH AV","Mount Pleasant","200","200 E 16TH AV, Vancouver, BC, Canada",49.2564651,-123.1004596,0,49.2568798853317,-123.100004801229
"381",2014,1,2,15,22,"ENG - Solid Waste","Sanitation","Abandoned Garbage Pickup - City Property & Parks","1##","W HASTINGS ST","Downtown","100","100 W HASTINGS ST, Vancouver, BC, Canada",49.2818961,-123.1074143,3,49.2820574594918,-123.107287566401
"382",2014,1,2,15,25,"CSG - Licenses","Animal Control","Animal Complaint - Non-Emergency Case","Intersection","OAK ST and W 77TH AV","Marpole","Intersection"," OAK ST and W 77TH AV, Vancouver, BC, Canada",49.20093,-123.13055,5,49.2011249911183,-123.13038846271
"383",2014,1,2,15,26,"ENG - Solid Waste","Sanitation","Cart - Garbage","36##","W 35TH AV","Dunbar Southlands","3600","3600 W 35TH AV, Vancouver, BC, Canada",49.2403151,-123.185503,3,49.2406492411562,-123.185137737801
"384",2014,1,2,15,26,"ENG - Solid Waste","Sanitation","Missed Yard Trimmings and Food Scraps Pickup","69##","WILTSHIRE ST","Kerrisdale","6900","6900 WILTSHIRE ST, Vancouver, BC, Canada",49.2230112,-123.1464883,3,49.223340338644,-123.146322962986
"385",2014,1,2,15,27,"ENG - Solid Waste","Sanitation","Cart - Garbage","50##","PRINCE EDWARD ST","Riley Park","5000","5000 PRINCE EDWARD ST, Vancouver, BC, Canada",49.2394618,-123.0967442,3,49.2395824522138,-123.096323256313
"386",2014,1,2,15,28,"CSG - Licenses","License Office","Licence Payment Request Case","34##","COMMERCIAL ST","Kensington-Cedar Cottage","3400","3400 COMMERCIAL ST, Vancouver, BC, Canada",49.253925,-123.0676605,0,49.2540916851609,-123.067292352085
"387",2014,1,2,15,29,"ENG - Transportation","Neighbourhood Parking and Transportation","Traffic Calming Request","18##","SEMLIN DRIVE","Grandview-Woodland","1800","1800 SEMLIN DRIVE, Vancouver, BC, Canada",49.2685269,-123.0636751,2,49.2688970490475,-123.063254024165
"388",2014,1,2,15,32,"ENG - Solid Waste","Sanitation","Missed Garbage Pickup","21##","W 6TH AV","Kitsilano","2100","2100 W 6TH AV, Vancouver, BC, Canada",49.2662851,-123.1530228,3,49.2667582480998,-123.152870337074
"389",2014,1,2,15,32,"CSG - Licenses","Animal Control","Animal Complaint - Non-Emergency Case","10##","BURRARD ST","Downtown","1000","1000 BURRARD ST, Vancouver, BC, Canada",49.27986,-123.12661,5,49.2800258424171,-123.126349329181
"390",2014,1,2,15,32,"ENG - Solid Waste","Sanitation","Missed Recycling Pickup","1##","W 42ND AV","Oakridge","100","100 W 42ND AV, Vancouver, BC, Canada",49.2321451,-123.1083638,3,49.2323560588031,-123.107943116186
"391",2014,1,2,15,35,"ENG - Solid Waste","Sanitation","Collection Calendar Mail-Out Request","32##","NANAIMO ST","Renfrew-Collingwood","3200","3200 NANAIMO ST, Vancouver, BC, Canada",49.2558019,-123.0564751,3,49.2561265346059,-123.056214284767
"392",2014,1,2,15,35,"ENG - Water & Sewer","Sewers Operations","Sewer Pipe Inquiries","38##","GLEN DRIVE","Kensington-Cedar Cottage","3800","3800 GLEN DRIVE, Vancouver, BC, Canada",49.2507879,-123.0816643,2,49.2512142963337,-123.081266669794
"393",2014,1,2,15,37,"ENG - Streets","Traffic and Electrical Operations","Street Light - Out","65##","FRASER ST","Sunset","6500","6500 FRASER ST, Vancouver, BC, Canada",49.2253933,-123.0906651,2,49.2256574892649,-123.090343519711
"394",2014,1,2,15,39,"ENG - Streets","Traffic and Electrical Operations","Street Light - Out","65##","FRASER ST","Sunset","6500","6500 FRASER ST, Vancouver, BC, Canada",49.2253933,-123.0906651,2,49.2256251846249,-123.090336833333
"395",2014,1,2,15,39,"ENG - Solid Waste","Sanitation","Missed Recycling Pickup","86##","SELKIRK ST","Marpole","8600","8600 SELKIRK ST, Vancouver, BC, Canada",49.2083492,-123.1330838,3,49.2087571311707,-123.132790886726
"396",2014,1,2,15,41,"ENG - Solid Waste","Sanitation","Missed Garbage Pickup","9##","DENMAN ST","West End","900","900 DENMAN ST, Vancouver, BC, Canada",49.2901389,-123.1371853,3,49.2905456025362,-123.136926049736
"397",2014,1,2,15,42,"Business Planning & Services","311 Contact Centre","Citizen Feedback","9##","DENMAN ST","West End","900","900 DENMAN ST, Vancouver, BC, Canada",49.2901389,-123.1371853,0,49.2904646049949,-123.136981766762
"398",2014,1,2,15,42,"Business Planning & Services","311 Contact Centre","Citizen Feedback","86##","SELKIRK ST","Marpole","8600","8600 SELKIRK ST, Vancouver, BC, Canada",49.2083492,-123.1330838,0,49.2087080861165,-123.13287615069
"399",2014,1,2,15,48,"ENG - Solid Waste","Sanitation","Missed Recycling Pickup","63##","CAMBIE ST","Oakridge","6300","6300 CAMBIE ST, Vancouver, BC, Canada",49.2280078,-123.1160898,3,49.2282628364559,-123.115604055586
"400",2014,1,2,15,48,"Public Safety - Fire","Prevention","Fire Reinspection Request for Firehall","23##","MAIN ST","Mount Pleasant","2300","2300 MAIN ST, Vancouver, BC, Canada",49.2645386,-123.1006974,0,49.2649458605743,-123.100313590415
"401",2014,1,2,15,48,"ENG - Solid Waste","Sanitation","Missed Yard Trimmings and Food Scraps Pickup","71##","CYPRESS ST","Kerrisdale","7100","7100 CYPRESS ST, Vancouver, BC, Canada",49.2210939,-123.1493626,3,49.2215258144258,-123.14889715393
"402",2014,1,2,15,49,"ENG - Solid Waste","Sanitation","Missed Apartment Recycling Pickup","8##","W 6TH AV","Fairview","800","800 W 6TH AV, Vancouver, BC, Canada",49.2657951,-123.1219027,3,49.2659869258801,-123.121536962607
"403",2014,1,2,15,51,"ENG - Solid Waste","Sanitation","Missed Recycling Pickup","1##","W 47TH AV","Oakridge","100","100 W 47TH AV, Vancouver, BC, Canada",49.2275751,-123.108524,3,49.2278198763867,-123.108260865709
"404",2014,1,2,15,51,"ENG - Solid Waste","Sanitation","Missed Garbage Pickup","8##","BROUGHTON ST","West End","800","800 BROUGHTON ST, Vancouver, BC, Canada",49.2876825,-123.130007,3,49.2879939354713,-123.129622984176
"405",2014,1,2,15,51,"ENG - Solid Waste","Sanitation","Cart - Garbage","3##","E 46TH AV","Sunset","300","300 E 46TH AV, Vancouver, BC, Canada",49.2283345,-123.0992095,3,49.2284522000769,-123.09875524724
"406",2014,1,2,15,58,"ENG - Solid Waste","Sanitation","Missed Recycling Pickup","1##","W 44TH AV","Oakridge","100","100 W 44TH AV, Vancouver, BC, Canada",49.2303452,-123.1084249,3,49.2305976488009,-123.10824089004
"407",2014,1,2,15,59,"ENG - Solid Waste","Sanitation","Missed Recycling Pickup","85##","HEATHER ST","Marpole","8500","8500 HEATHER ST, Vancouver, BC, Canada",49.2090631,-123.1239646,3,49.2095266809883,-123.123583049057
"408",2014,1,2,16,3,"CSG - Licenses","Animal Control","Animal Control General Inquiry Case","26##","MORNINGSTAR CRESCENT","Killarney","2600","2600 MORNINGSTAR CRESCENT, Vancouver, BC, Canada",49.2060823,-123.053663,5,49.2062265620682,-123.053319748077
"409",2014,1,2,16,4,"ENG - Solid Waste","Sanitation","Missed Recycling Pickup","51##","PINE CRESCENT","Shaughnessy","5100","5100 PINE CRESCENT, Vancouver, BC, Canada",49.2398335,-123.1467643,3,49.2403182793802,-123.146602709691
"410",2014,1,2,16,6,"CSG - Licenses","Animal Control","Lost Pets Case","25##","VENABLES ST","Hastings-Sunrise","2500","2500 VENABLES ST, Vancouver, BC, Canada",49.2765351,-123.054406,5,49.2768453871482,-123.054264084911
"411",2014,1,2,16,7,"ENG - Solid Waste","Sanitation","Missed Garbage Pickup","32##","HEATHER ST","South Cambie","3200","3200 HEATHER ST, Vancouver, BC, Canada",49.2568509,-123.119854,3,49.2572069721762,-123.11960215834
"412",2014,1,2,16,7,"ENG - Solid Waste","Sanitation","Cart - Apartment Recycling","22##","E HASTINGS ST","Grandview-Woodland","2200","2200 E HASTINGS ST, Vancouver, BC, Canada",49.2810151,-123.0595098,3,49.2811153169424,-123.059342271704
"413",2014,1,2,16,8,"ENG - Solid Waste","Sanitation","Abandoned Garbage Pickup - City Property & Parks","26##","E 7TH AV","Hastings-Sunrise","2600","2600 E 7TH AV, Vancouver, BC, Canada",49.2637951,-123.0519393,3,49.2639261704164,-123.051600098123
"414",2014,1,2,16,10,"CSG - Licenses","Animal Control","Animal Complaint - Non-Emergency Case","7800"," - 7999 CARTIER ST","Marpole","7800","7800  - 7999 CARTIER ST, Vancouver, BC, Canada",49.2148688,-123.1373944,5,49.215365102602,-123.136933945439
"415",2014,1,2,16,11,"ENG - Solid Waste","Sanitation","Missed Garbage Pickup","63##","GRANVILLE ST","Oakridge","6300","6300 GRANVILLE ST, Vancouver, BC, Canada",49.2286641,-123.1395937,3,49.2290521934533,-123.139141911737
"416",2014,1,2,16,12,"ENG - Solid Waste","Sanitation","Cart - Green (Yard Trimmings and Food Scraps)","9##","W 38TH AV","South Cambie","900","900 W 38TH AV, Vancouver, BC, Canada",49.2365474,-123.1257806,3,49.236828782924,-123.125633572978
"417",2014,1,2,16,12,"ENG - Solid Waste","Sanitation","Missed Yard Trimmings and Food Scraps Pickup","63##","GRANVILLE ST","Oakridge","6300","6300 GRANVILLE ST, Vancouver, BC, Canada",49.2286641,-123.1395937,3,49.2288967668558,-123.13935516425
"418",2014,1,2,16,13,"PRB - Planning and Operations","Street Trees","Street Tree Work Request SR","58##","OLYMPIC ST","Dunbar Southlands","5800","5800 OLYMPIC ST, Vancouver, BC, Canada",49.2338299,-123.1895051,2,49.2342921259893,-123.189229149033
"419",2014,1,2,16,13,"CSG - Licenses","License Office","Gone Out of Business Case","26##","YUKON ST","Mount Pleasant","2600","2600 YUKON ST, Vancouver, BC, Canada",49.26217,-123.1128251,0,49.2626655708172,-123.112458859954
"420",2014,1,2,16,13,"CSG - Licenses","License Office","Licence Payment Request Case","10##","PACIFIC ST","West End","1000","1000 PACIFIC ST, Vancouver, BC, Canada",49.2773865,-123.1332926,0,49.2775428605599,-123.133190902638
"421",2014,1,2,16,14,"ENG - Solid Waste","Sanitation","Abandoned Garbage Pickup - City Property & Parks","64##","VICTORIA DRIVE","Victoria-Fraserview","6400","6400 VICTORIA DRIVE, Vancouver, BC, Canada",49.2261902,-123.0655339,3,49.2265342638582,-123.065365117817
"422",2014,1,2,16,15,"ENG - Solid Waste","Sanitation","Abandoned Garbage Pickup - City Property & Parks","11##","E 10TH AV","Mount Pleasant","1100","1100 E 10TH AV, Vancouver, BC, Canada",49.2613551,-123.0811359,3,49.2615056846105,-123.080680095477
"423",2014,1,2,16,15,"ENG - Solid Waste","Sanitation","Abandoned Garbage Pickup - City Property & Parks","54##","VICTORIA DRIVE","Kensington-Cedar Cottage","5400","5400 VICTORIA DRIVE, Vancouver, BC, Canada",49.23574,-123.0653451,3,49.2361429252846,-123.065183691093
"424",2014,1,2,16,17,"ENG - Solid Waste","Sanitation","Missed Recycling Pickup","83##","LAUREL ST","Marpole","8300","8300 LAUREL ST, Vancouver, BC, Canada",49.2105376,-123.1258851,3,49.2108409322314,-123.125508511922
"425",2014,1,2,16,17,"ENG - Solid Waste","Sanitation","Abandoned Garbage Pickup - City Property & Parks","62##","VICTORIA DRIVE","Victoria-Fraserview","6200","6200 VICTORIA DRIVE, Vancouver, BC, Canada",49.2274916,-123.0654951,3,49.2278259397706,-123.065203260592
"426",2014,1,2,16,18,"ENG - Solid Waste","Sanitation","Abandoned Garbage Pickup - City Property & Parks","11##","E 10TH AV","Mount Pleasant","1100","1100 E 10TH AV, Vancouver, BC, Canada",49.2613551,-123.0811359,3,49.2617020384506,-123.080819361243
